{
"type": "FeatureCollection",
"name": "zone_covoit_all_bzh",
"crs": { "type": "name", "properties": { "name": "urn:ogc:def:crs:OGC:1.3:CRS84" } },
"features": [
{ "type": "Feature", "properties": { "fid": 1, "id_lieu": "22020-C-001", "nom_lieu": "Aire de covoiturage Le Chalet", "Xlong": "-2.251687902", "Ylat": "48.3223247", "com_code": "22020", "com_name": "Broons" }, "geometry": { "type": "Point", "coordinates": [ -2.251687902, 48.3223247 ] } },
{ "type": "Feature", "properties": { "fid": 2, "id_lieu": "22025-C-001", "nom_lieu": "Aire de covoiturage Kerguiniou", "Xlong": "-3.405110898", "Ylat": "48.40856996", "com_code": "22025", "com_name": "Callac" }, "geometry": { "type": "Point", "coordinates": [ -3.405110898, 48.40856996 ] } },
{ "type": "Feature", "properties": { "fid": 3, "id_lieu": "22032-C-001", "nom_lieu": "Aire de covoiturage La Croix Guessant", "Xlong": "-2.117087738", "Ylat": "48.32844373", "com_code": "22032", "com_name": "Caulnes" }, "geometry": { "type": "Point", "coordinates": [ -2.117087738, 48.32844373 ] } },
{ "type": "Feature", "properties": { "fid": 4, "id_lieu": "22034-C-001", "nom_lieu": "Aire de covoiturage Breizh-Izel", "Xlong": "-3.337959874", "Ylat": "48.66289974", "com_code": "22034", "com_name": "Cavan" }, "geometry": { "type": "Point", "coordinates": [ -3.337959874, 48.66289974 ] } },
{ "type": "Feature", "properties": { "fid": 5, "id_lieu": "22048-C-001", "nom_lieu": "Aire de covoiturage L'Hétellerie", "Xlong": "-2.15879366", "Ylat": "48.47933323", "com_code": "22048", "com_name": "Corseul" }, "geometry": { "type": "Point", "coordinates": [ -2.15879366, 48.47933323 ] } },
{ "type": "Feature", "properties": { "fid": 6, "id_lieu": "22055-C-001", "nom_lieu": "Aire de covoiturage L'Orme", "Xlong": "-2.826562375", "Ylat": "48.59408176", "com_code": "22055", "com_name": "Binic-Étables-sur-Mer" }, "geometry": { "type": "Point", "coordinates": [ -2.826562375, 48.59408176 ] } },
{ "type": "Feature", "properties": { "fid": 7, "id_lieu": "22081-C-001", "nom_lieu": "Aire de covoiturage Saint René", "Xlong": "-2.645109417", "Ylat": "48.48046202", "com_code": "22081", "com_name": "Hillion" }, "geometry": { "type": "Point", "coordinates": [ -2.645109417, 48.48046202 ] } },
{ "type": "Feature", "properties": { "fid": 8, "id_lieu": "22084-C-001", "nom_lieu": "Aire de covoiturage Le Val Joli", "Xlong": "-2.315409162", "Ylat": "48.41524825", "com_code": "22084", "com_name": "Jugon-les-Lacs - Commune nouvelle" }, "geometry": { "type": "Point", "coordinates": [ -2.315409162, 48.41524825 ] } },
{ "type": "Feature", "properties": { "fid": 9, "id_lieu": "22084-C-002", "nom_lieu": "Aire de covoiturage Saint-Igneuc", "Xlong": "-2.345367377", "Ylat": "48.40983213", "com_code": "22084", "com_name": "Jugon-les-Lacs - Commune nouvelle" }, "geometry": { "type": "Point", "coordinates": [ -2.345367377, 48.40983213 ] } },
{ "type": "Feature", "properties": { "fid": 10, "id_lieu": "22093-C-001", "nom_lieu": "Aire de covoiturage La Ville Es Lan", "Xlong": "-2.54833357", "Ylat": "48.46780324", "com_code": "22093", "com_name": "Lamballe-Armor" }, "geometry": { "type": "Point", "coordinates": [ -2.54833357, 48.46780324 ] } },
{ "type": "Feature", "properties": { "fid": 11, "id_lieu": "22113-C-001", "nom_lieu": "Aire de covoiturage Le Boutil", "Xlong": "-3.430629822", "Ylat": "48.72429683", "com_code": "22113", "com_name": "Lannion" }, "geometry": { "type": "Point", "coordinates": [ -3.430629822, 48.72429683 ] } },
{ "type": "Feature", "properties": { "fid": 12, "id_lieu": "22121-C-001", "nom_lieu": "Aire de covoiturage Pont Lé", "Xlong": "-2.976688639", "Ylat": "48.63465909", "com_code": "22121", "com_name": "Lanvollon" }, "geometry": { "type": "Point", "coordinates": [ -2.976688639, 48.63465909 ] } },
{ "type": "Feature", "properties": { "fid": 13, "id_lieu": "22136-C-001", "nom_lieu": "Aire de covoiturage La Fourchette", "Xlong": "-2.753325074", "Ylat": "48.19725814", "com_code": "22136", "com_name": "Loudéac" }, "geometry": { "type": "Point", "coordinates": [ -2.753325074, 48.19725814 ] } },
{ "type": "Feature", "properties": { "fid": 14, "id_lieu": "22136-C-002", "nom_lieu": "Aire de covoiturage Porhoet", "Xlong": "-2.735771957", "Ylat": "48.16846279", "com_code": "22136", "com_name": "Loudéac" }, "geometry": { "type": "Point", "coordinates": [ -2.735771957, 48.16846279 ] } },
{ "type": "Feature", "properties": { "fid": 15, "id_lieu": "22143-C-001", "nom_lieu": "Aire de covoiturage Le Stade", "Xlong": "-2.296072962", "Ylat": "48.59213544", "com_code": "22143", "com_name": "Matignon" }, "geometry": { "type": "Point", "coordinates": [ -2.296072962, 48.59213544 ] } },
{ "type": "Feature", "properties": { "fid": 16, "id_lieu": "22155-C-001", "nom_lieu": "Aire de covoiturage Bel Air", "Xlong": "-2.755123526", "Ylat": "48.22553374", "com_code": "22155", "com_name": "La Motte" }, "geometry": { "type": "Point", "coordinates": [ -2.755123526, 48.22553374 ] } },
{ "type": "Feature", "properties": { "fid": 17, "id_lieu": "22158-C-001", "nom_lieu": "Aire de covoiturage Michelle Le Brun", "Xlong": "-2.989523491", "Ylat": "48.19808245", "com_code": "22158", "com_name": "Guerlédan" }, "geometry": { "type": "Point", "coordinates": [ -2.989523491, 48.19808245 ] } },
{ "type": "Feature", "properties": { "fid": 18, "id_lieu": "22162-C-001", "nom_lieu": "Aire de covoiturage La Lande Blanche", "Xlong": "-3.041335092", "Ylat": "48.76188831", "com_code": "22162", "com_name": "Paimpol" }, "geometry": { "type": "Point", "coordinates": [ -3.041335092, 48.76188831 ] } },
{ "type": "Feature", "properties": { "fid": 19, "id_lieu": "22172-C-001", "nom_lieu": "Aire de covoiturage L'Arguenon", "Xlong": "-2.228547235", "Ylat": "48.52557987", "com_code": "22172", "com_name": "Plancoët" }, "geometry": { "type": "Point", "coordinates": [ -2.228547235, 48.52557987 ] } },
{ "type": "Feature", "properties": { "fid": 20, "id_lieu": "22176-C-001", "nom_lieu": "Aire de covoiturage La Croix denis", "Xlong": "-2.781909681", "Ylat": "48.46110837", "com_code": "22176", "com_name": "Plédran" }, "geometry": { "type": "Point", "coordinates": [ -2.781909681, 48.46110837 ] } },
{ "type": "Feature", "properties": { "fid": 21, "id_lieu": "22183-C-001", "nom_lieu": "Aire de covoiturage L'Escargot", "Xlong": "-2.59100542", "Ylat": "48.18776095", "com_code": "22183", "com_name": "Plémet" }, "geometry": { "type": "Point", "coordinates": [ -2.59100542, 48.18776095 ] } },
{ "type": "Feature", "properties": { "fid": 22, "id_lieu": "22185-C-001", "nom_lieu": "Aire de covoiturage Les Vallées", "Xlong": "-2.359683391", "Ylat": "48.37505553", "com_code": "22185", "com_name": "Plénée-Jugon" }, "geometry": { "type": "Point", "coordinates": [ -2.359683391, 48.37505553 ] } },
{ "type": "Feature", "properties": { "fid": 23, "id_lieu": "22187-C-001", "nom_lieu": "Aire de covoiturage Les Mimosas", "Xlong": "-2.769916279", "Ylat": "48.54361598", "com_code": "22187", "com_name": "Plérin" }, "geometry": { "type": "Point", "coordinates": [ -2.769916279, 48.54361598 ] } },
{ "type": "Feature", "properties": { "fid": 24, "id_lieu": "22190-C-001", "nom_lieu": "Aire de covoiturage La Grignardais", "Xlong": "-2.040774181", "Ylat": "48.52193004", "com_code": "22190", "com_name": "Pleslin-Trigavou" }, "geometry": { "type": "Point", "coordinates": [ -2.040774181, 48.52193004 ] } },
{ "type": "Feature", "properties": { "fid": 25, "id_lieu": "22206-C-001", "nom_lieu": "Aire de covoiturage Kertédevant", "Xlong": "-2.968602739", "Ylat": "48.52936003", "com_code": "22206", "com_name": "Châtelaudren-Plouagat" }, "geometry": { "type": "Point", "coordinates": [ -2.968602739, 48.52936003 ] } },
{ "type": "Feature", "properties": { "fid": 26, "id_lieu": "22213-C-001", "nom_lieu": "Aire de covoiturage La Chiennais", "Xlong": "-2.01332844", "Ylat": "48.53598684", "com_code": "22213", "com_name": "Plouër-sur-Rance" }, "geometry": { "type": "Point", "coordinates": [ -2.01332844, 48.53598684 ] } },
{ "type": "Feature", "properties": { "fid": 27, "id_lieu": "22220-C-001", "nom_lieu": "Aire de covoiturage La Ville Louis", "Xlong": "-3.297438299", "Ylat": "48.23661464", "com_code": "22220", "com_name": "Plouguernével" }, "geometry": { "type": "Point", "coordinates": [ -3.297438299, 48.23661464 ] } },
{ "type": "Feature", "properties": { "fid": 28, "id_lieu": "22223-C-001", "nom_lieu": "Aire de covoiturage Kernilien", "Xlong": "-3.20665538", "Ylat": "48.56583954", "com_code": "22223", "com_name": "Plouisy" }, "geometry": { "type": "Point", "coordinates": [ -3.20665538, 48.56583954 ] } },
{ "type": "Feature", "properties": { "fid": 29, "id_lieu": "22225-C-001", "nom_lieu": "Aire de covoiturage La Chesnaye", "Xlong": "-3.149353026", "Ylat": "48.54897762", "com_code": "22070", "com_name": "Guingamp" }, "geometry": { "type": "Point", "coordinates": [ -3.149353026, 48.54897762 ] } },
{ "type": "Feature", "properties": { "fid": 30, "id_lieu": "22228-C-001", "nom_lieu": "Aire de covoiturage Beg Ar C'Hra", "Xlong": "-3.498991816", "Ylat": "48.56252705", "com_code": "22228", "com_name": "Plounévez-Moëdec" }, "geometry": { "type": "Point", "coordinates": [ -3.498991816, 48.56252705 ] } },
{ "type": "Feature", "properties": { "fid": 31, "id_lieu": "22251-C-001", "nom_lieu": "Aire de covoiturage La Ville Auvray", "Xlong": "-2.81084774", "Ylat": "48.56116737", "com_code": "22251", "com_name": "Pordic" }, "geometry": { "type": "Point", "coordinates": [ -2.81084774, 48.56116737 ] } },
{ "type": "Feature", "properties": { "fid": 32, "id_lieu": "22259-C-001", "nom_lieu": "Aire de covoiturage Bel Air", "Xlong": "-2.092349596", "Ylat": "48.44664779", "com_code": "22259", "com_name": "Quévert" }, "geometry": { "type": "Point", "coordinates": [ -2.092349596, 48.44664779 ] } },
{ "type": "Feature", "properties": { "fid": 33, "id_lieu": "22259-C-002", "nom_lieu": "Aire de covoiturage La Lande Seguin", "Xlong": "-2.090182481", "Ylat": "48.44700698", "com_code": "22259", "com_name": "Quévert" }, "geometry": { "type": "Point", "coordinates": [ -2.090182481, 48.44700698 ] } },
{ "type": "Feature", "properties": { "fid": 34, "id_lieu": "22259-C-003", "nom_lieu": "Aire de covoiturage Les Champs Blancs", "Xlong": "-2.092089201", "Ylat": "48.44614562", "com_code": "22259", "com_name": "Quévert" }, "geometry": { "type": "Point", "coordinates": [ -2.092089201, 48.44614562 ] } },
{ "type": "Feature", "properties": { "fid": 35, "id_lieu": "22305-C-001", "nom_lieu": "Aire de covoiturage Kergoét", "Xlong": "-2.188097311", "Ylat": "48.27282354", "com_code": "22305", "com_name": "Saint-Jouan-de-l'Isle" }, "geometry": { "type": "Point", "coordinates": [ -2.188097311, 48.27282354 ] } },
{ "type": "Feature", "properties": { "fid": 36, "id_lieu": "22321-C-001", "nom_lieu": "Aire de covoiturage Le Ruellou", "Xlong": "-3.162659448", "Ylat": "48.30708847", "com_code": "22321", "com_name": "Saint-Nicolas-du-Pélem" }, "geometry": { "type": "Point", "coordinates": [ -3.162659448, 48.30708847 ] } },
{ "type": "Feature", "properties": { "fid": 37, "id_lieu": "22339-C-001", "nom_lieu": "Aire de covoiturage Dombriand", "Xlong": "-2.042211282", "Ylat": "48.48128", "com_code": "22339", "com_name": "Taden" }, "geometry": { "type": "Point", "coordinates": [ -2.042211282, 48.48128 ] } },
{ "type": "Feature", "properties": { "fid": 38, "id_lieu": "22339-C-002", "nom_lieu": "Aire de covoiturage La Méreille", "Xlong": "-2.060533292", "Ylat": "48.4695778", "com_code": "22339", "com_name": "Taden" }, "geometry": { "type": "Point", "coordinates": [ -2.060533292, 48.4695778 ] } },
{ "type": "Feature", "properties": { "fid": 39, "id_lieu": "22341-C-001", "nom_lieu": "Aire de covoiturage Croix de L'Epine", "Xlong": "-2.395596168", "Ylat": "48.3923125", "com_code": "22341", "com_name": "Tramain" }, "geometry": { "type": "Point", "coordinates": [ -2.395596168, 48.3923125 ] } },
{ "type": "Feature", "properties": { "fid": 40, "id_lieu": "22360-C-001", "nom_lieu": "Aire de covoiturage La Crarée", "Xlong": "-2.750257156", "Ylat": "48.47715316", "com_code": "22360", "com_name": "Trégueux" }, "geometry": { "type": "Point", "coordinates": [ -2.750257156, 48.47715316 ] } },
{ "type": "Feature", "properties": { "fid": 41, "id_lieu": "22368-C-001", "nom_lieu": "Aire de covoiturage Rance Fremur", "Xlong": "-2.059739522", "Ylat": "48.56589574", "com_code": "22368", "com_name": "Tréméreuc" }, "geometry": { "type": "Point", "coordinates": [ -2.059739522, 48.56589574 ] } },
{ "type": "Feature", "properties": { "fid": 42, "id_lieu": "22372-C-001", "nom_lieu": "Aire de covoiturage L'Aéroport", "Xlong": "-2.859697266", "Ylat": "48.53073919", "com_code": "22182", "com_name": "Plélo" }, "geometry": { "type": "Point", "coordinates": [ -2.859697266, 48.53073919 ] } },
{ "type": "Feature", "properties": { "fid": 43, "id_lieu": "22384-C-001", "nom_lieu": "Aire de covoiturage Berlouze", "Xlong": "-2.826654417", "Ylat": "48.28744844", "com_code": "22384", "com_name": "Uzel" }, "geometry": { "type": "Point", "coordinates": [ -2.826654417, 48.28744844 ] } },
{ "type": "Feature", "properties": { "fid": 44, "id_lieu": "22388-C-001", "nom_lieu": "Aire de covoiturage Les Broussettes", "Xlong": "-2.144430388", "Ylat": "48.43858255", "com_code": "22388", "com_name": "Vildé-Guingalan" }, "geometry": { "type": "Point", "coordinates": [ -2.144430388, 48.43858255 ] } },
{ "type": "Feature", "properties": { "fid": 45, "id_lieu": "29005-C-001", "nom_lieu": "Aire de covoiturage Lenn Veur", "Xlong": "-3.605252657", "Ylat": "47.85639796", "com_code": "29005", "com_name": "Baye" }, "geometry": { "type": "Point", "coordinates": [ -3.605252657, 47.85639796 ] } },
{ "type": "Feature", "properties": { "fid": 46, "id_lieu": "29020-C-001", "nom_lieu": "Aire de covoiturage Kerlez", "Xlong": "-4.029732128", "Ylat": "48.10050821", "com_code": "29020", "com_name": "Briec" }, "geometry": { "type": "Point", "coordinates": [ -4.029732128, 48.10050821 ] } },
{ "type": "Feature", "properties": { "fid": 47, "id_lieu": "29023-C-001", "nom_lieu": "Aire de covoiturage Kerjeanne", "Xlong": "-3.923494193", "Ylat": "48.65176241", "com_code": "29023", "com_name": "Carantec" }, "geometry": { "type": "Point", "coordinates": [ -3.923494193, 48.65176241 ] } },
{ "type": "Feature", "properties": { "fid": 48, "id_lieu": "29024-C-001", "nom_lieu": "Aire de covoiturage La Villeneuve", "Xlong": "-3.539572584", "Ylat": "48.27557053", "com_code": "29024", "com_name": "Carhaix-Plouguer" }, "geometry": { "type": "Point", "coordinates": [ -3.539572584, 48.27557053 ] } },
{ "type": "Feature", "properties": { "fid": 49, "id_lieu": "29025-C-001", "nom_lieu": "Aire de covoiturage Poul Ar Saf", "Xlong": "-4.14528471", "Ylat": "48.15031019", "com_code": "29025", "com_name": "Cast" }, "geometry": { "type": "Point", "coordinates": [ -4.14528471, 48.15031019 ] } },
{ "type": "Feature", "properties": { "fid": 50, "id_lieu": "29026-C-001", "nom_lieu": "Aire de covoiturage Le Pouillot", "Xlong": "-4.050687921", "Ylat": "48.21589432", "com_code": "29026", "com_name": "Châteaulin" }, "geometry": { "type": "Point", "coordinates": [ -4.050687921, 48.21589432 ] } },
{ "type": "Feature", "properties": { "fid": 51, "id_lieu": "29027-C-001", "nom_lieu": "Aire de covoiturage Kroas Lesneven", "Xlong": "-3.822061995", "Ylat": "48.20233433", "com_code": "29027", "com_name": "Châteauneuf-du-Faou" }, "geometry": { "type": "Point", "coordinates": [ -3.822061995, 48.20233433 ] } },
{ "type": "Feature", "properties": { "fid": 52, "id_lieu": "29035-C-001", "nom_lieu": "Aire de covoiturage Prat Ar C'Heff", "Xlong": "-4.545870784", "Ylat": "48.50609265", "com_code": "29035", "com_name": "Coat-Méal" }, "geometry": { "type": "Point", "coordinates": [ -4.545870784, 48.50609265 ] } },
{ "type": "Feature", "properties": { "fid": 53, "id_lieu": "29037-C-001", "nom_lieu": "Aire de covoiturage Ti Robin", "Xlong": "-4.191780041", "Ylat": "47.90848155", "com_code": "29037", "com_name": "Combrit" }, "geometry": { "type": "Point", "coordinates": [ -4.191780041, 47.90848155 ] } },
{ "type": "Feature", "properties": { "fid": 54, "id_lieu": "29039-C-001", "nom_lieu": "Aire de covoiturage La Boissiére - Coat Conq", "Xlong": "-3.901725832", "Ylat": "47.92190062", "com_code": "29039", "com_name": "Concarneau" }, "geometry": { "type": "Point", "coordinates": [ -3.901725832, 47.92190062 ] } },
{ "type": "Feature", "properties": { "fid": 55, "id_lieu": "29041-C-001", "nom_lieu": "Aire de covoiturage Ster Goz", "Xlong": "-3.833272568", "Ylat": "48.05859023", "com_code": "29041", "com_name": "Coray" }, "geometry": { "type": "Point", "coordinates": [ -3.833272568, 48.05859023 ] } },
{ "type": "Feature", "properties": { "fid": 56, "id_lieu": "29042-C-001", "nom_lieu": "Aire de covoiturage Tal Ar Groas", "Xlong": "-4.418959835", "Ylat": "48.24805282", "com_code": "29042", "com_name": "Crozon" }, "geometry": { "type": "Point", "coordinates": [ -4.418959835, 48.24805282 ] } },
{ "type": "Feature", "properties": { "fid": 57, "id_lieu": "29043-C-001", "nom_lieu": "Aire de covoiturage Moulin des Salles", "Xlong": "-4.257678045", "Ylat": "48.36654658", "com_code": "29043", "com_name": "Daoulas" }, "geometry": { "type": "Point", "coordinates": [ -4.257678045, 48.36654658 ] } },
{ "type": "Feature", "properties": { "fid": 58, "id_lieu": "29053-C-001", "nom_lieu": "Aire de covoiturage Quiella", "Xlong": "-4.167873871", "Ylat": "48.29862009", "com_code": "29053", "com_name": "Le Faou" }, "geometry": { "type": "Point", "coordinates": [ -4.167873871, 48.29862009 ] } },
{ "type": "Feature", "properties": { "fid": 59, "id_lieu": "29054-C-001", "nom_lieu": "Aire de covoiturage Croaz An Herry", "Xlong": "-3.845220409", "Ylat": "48.38169577", "com_code": "29054", "com_name": "La Feuillée" }, "geometry": { "type": "Point", "coordinates": [ -3.845220409, 48.38169577 ] } },
{ "type": "Feature", "properties": { "fid": 60, "id_lieu": "29061-C-001", "nom_lieu": "Aire de covoiturage Le Carpont", "Xlong": "-4.461762586", "Ylat": "48.44688675", "com_code": "29061", "com_name": "Gouesnou" }, "geometry": { "type": "Point", "coordinates": [ -4.461762586, 48.44688675 ] } },
{ "type": "Feature", "properties": { "fid": 61, "id_lieu": "29068-C-001", "nom_lieu": "Aire de covoiturage Kermat", "Xlong": "-3.989414044", "Ylat": "48.52088518", "com_code": "29068", "com_name": "Guiclan" }, "geometry": { "type": "Point", "coordinates": [ -3.989414044, 48.52088518 ] } },
{ "type": "Feature", "properties": { "fid": 62, "id_lieu": "29069-C-001", "nom_lieu": "Aire de covoiturage Ty Colo", "Xlong": "-4.598634806", "Ylat": "48.4284774", "com_code": "29069", "com_name": "Guilers" }, "geometry": { "type": "Point", "coordinates": [ -4.598634806, 48.4284774 ] } },
{ "type": "Feature", "properties": { "fid": 63, "id_lieu": "29075-C-001", "nom_lieu": "Aire de covoiturage Froutven", "Xlong": "-4.43966825", "Ylat": "48.4172813", "com_code": "29075", "com_name": "Guipavas" }, "geometry": { "type": "Point", "coordinates": [ -4.43966825, 48.4172813 ] } },
{ "type": "Feature", "properties": { "fid": 64, "id_lieu": "29075-C-002", "nom_lieu": "Aire de covoiturage Penn Ar Forest", "Xlong": "-4.363309449", "Ylat": "48.4567755", "com_code": "29075", "com_name": "Guipavas" }, "geometry": { "type": "Point", "coordinates": [ -4.363309449, 48.4567755 ] } },
{ "type": "Feature", "properties": { "fid": 65, "id_lieu": "29078-C-001", "nom_lieu": "Aire de covoiturage Botcabeur", "Xlong": "-4.155742952", "Ylat": "48.33213615", "com_code": "29078", "com_name": "Hanvec" }, "geometry": { "type": "Point", "coordinates": [ -4.155742952, 48.33213615 ] } },
{ "type": "Feature", "properties": { "fid": 66, "id_lieu": "29079-C-001", "nom_lieu": "Aire de covoiturage Pont de La Corde", "Xlong": "-3.947920847", "Ylat": "48.64531888", "com_code": "29079", "com_name": "Henvic" }, "geometry": { "type": "Point", "coordinates": [ -3.947920847, 48.64531888 ] } },
{ "type": "Feature", "properties": { "fid": 67, "id_lieu": "29081-C-001", "nom_lieu": "Aire de covoiturage Menez Bras", "Xlong": "-3.750106041", "Ylat": "48.34839447", "com_code": "29211", "com_name": "Plouyé" }, "geometry": { "type": "Point", "coordinates": [ -3.750106041, 48.34839447 ] } },
{ "type": "Feature", "properties": { "fid": 68, "id_lieu": "29089-C-001", "nom_lieu": "Aire de covoiturage Loch Ar Lann", "Xlong": "-3.612962056", "Ylat": "48.2874739", "com_code": "29089", "com_name": "Kergloff" }, "geometry": { "type": "Point", "coordinates": [ -3.612962056, 48.2874739 ] } },
{ "type": "Feature", "properties": { "fid": 69, "id_lieu": "29103-C-001", "nom_lieu": "Aire de covoiturage Jean Monnet", "Xlong": "-4.269187605", "Ylat": "48.44449453", "com_code": "29103", "com_name": "Landerneau" }, "geometry": { "type": "Point", "coordinates": [ -4.269187605, 48.44449453 ] } },
{ "type": "Feature", "properties": { "fid": 70, "id_lieu": "29104-C-001", "nom_lieu": "Aire de covoiturage Les Quatre Chemins", "Xlong": "-4.333813993", "Ylat": "48.26220635", "com_code": "29104", "com_name": "Landévennec" }, "geometry": { "type": "Point", "coordinates": [ -4.333813993, 48.26220635 ] } },
{ "type": "Feature", "properties": { "fid": 71, "id_lieu": "29105-C-001", "nom_lieu": "Aire de covoiturage Kerivoal", "Xlong": "-4.051675766", "Ylat": "48.51538192", "com_code": "29105", "com_name": "Landivisiau" }, "geometry": { "type": "Point", "coordinates": [ -4.051675766, 48.51538192 ] } },
{ "type": "Feature", "properties": { "fid": 72, "id_lieu": "29123-C-001", "nom_lieu": "Aire de covoiturage Ty Blaise", "Xlong": "-3.902552406", "Ylat": "48.20781075", "com_code": "29123", "com_name": "Lennon" }, "geometry": { "type": "Point", "coordinates": [ -3.902552406, 48.20781075 ] } },
{ "type": "Feature", "properties": { "fid": 73, "id_lieu": "29140-C-001", "nom_lieu": "Aire de covoiturage Kéranc'Hoat", "Xlong": "-4.307951837", "Ylat": "48.38286825", "com_code": "29140", "com_name": "Loperhet" }, "geometry": { "type": "Point", "coordinates": [ -4.307951837, 48.38286825 ] } },
{ "type": "Feature", "properties": { "fid": 74, "id_lieu": "29146-C-001", "nom_lieu": "Aire de covoiturage Kerampaou (Kercorey)", "Xlong": "-3.800855592", "Ylat": "47.88913267", "com_code": "29146", "com_name": "Melgven" }, "geometry": { "type": "Point", "coordinates": [ -3.800855592, 47.88913267 ] } },
{ "type": "Feature", "properties": { "fid": 75, "id_lieu": "29149-C-001", "nom_lieu": "Aire de covoiturage Pen Ar Guéar", "Xlong": "-4.562064728", "Ylat": "48.46307683", "com_code": "29076", "com_name": "Milizac-Guipronvel" }, "geometry": { "type": "Point", "coordinates": [ -4.562064728, 48.46307683 ] } },
{ "type": "Feature", "properties": { "fid": 76, "id_lieu": "29160-C-001", "nom_lieu": "Aire de covoiturage Gare du Lac", "Xlong": "-4.430842377", "Ylat": "48.49801446", "com_code": "29160", "com_name": "Plabennec" }, "geometry": { "type": "Point", "coordinates": [ -4.430842377, 48.49801446 ] } },
{ "type": "Feature", "properties": { "fid": 77, "id_lieu": "29161-C-001", "nom_lieu": "Aire de covoiturage Penhoat Salaun", "Xlong": "-4.027307333", "Ylat": "47.90150893", "com_code": "29161", "com_name": "Pleuven" }, "geometry": { "type": "Point", "coordinates": [ -4.027307333, 47.90150893 ] } },
{ "type": "Feature", "properties": { "fid": 78, "id_lieu": "29167-C-001", "nom_lieu": "Aire de covoiturage Kérandoaré", "Xlong": "-4.271148516", "Ylat": "47.99869516", "com_code": "29167", "com_name": "Plogastel-Saint-Germain" }, "geometry": { "type": "Point", "coordinates": [ -4.271148516, 47.99869516 ] } },
{ "type": "Feature", "properties": { "fid": 79, "id_lieu": "29179-C-001", "nom_lieu": "Aire de covoiturage Croas Ar Rod", "Xlong": "-4.309931516", "Ylat": "48.55942071", "com_code": "29179", "com_name": "Ploudaniel" }, "geometry": { "type": "Point", "coordinates": [ -4.309931516, 48.55942071 ] } },
{ "type": "Feature", "properties": { "fid": 80, "id_lieu": "29179-C-002", "nom_lieu": "Aire de covoiturage Saint-Eloi", "Xlong": "-4.289608112", "Ylat": "48.48290276", "com_code": "29179", "com_name": "Ploudaniel" }, "geometry": { "type": "Point", "coordinates": [ -4.289608112, 48.48290276 ] } },
{ "type": "Feature", "properties": { "fid": 81, "id_lieu": "29183-C-001", "nom_lieu": "Aire de covoiturage Les Quatre Chemins", "Xlong": "-3.605819376", "Ylat": "48.56735534", "com_code": "29183", "com_name": "Plouégat-Moysan" }, "geometry": { "type": "Point", "coordinates": [ -3.605819376, 48.56735534 ] } },
{ "type": "Feature", "properties": { "fid": 82, "id_lieu": "29190-C-001", "nom_lieu": "Aire de covoiturage Keraudy", "Xlong": "-4.720745248", "Ylat": "48.34391896", "com_code": "29190", "com_name": "Plougonvelin" }, "geometry": { "type": "Point", "coordinates": [ -4.720745248, 48.34391896 ] } },
{ "type": "Feature", "properties": { "fid": 83, "id_lieu": "29196-C-001", "nom_lieu": "Aire de covoiturage Gorréquéar", "Xlong": "-4.602263502", "Ylat": "48.52494474", "com_code": "29196", "com_name": "Plouguin" }, "geometry": { "type": "Point", "coordinates": [ -4.602263502, 48.52494474 ] } },
{ "type": "Feature", "properties": { "fid": 84, "id_lieu": "29199-C-001", "nom_lieu": "Aire de covoiturage Lan Kerdilés", "Xlong": "-3.715960142", "Ylat": "48.57640458", "com_code": "29199", "com_name": "Plouigneau" }, "geometry": { "type": "Point", "coordinates": [ -3.715960142, 48.57640458 ] } },
{ "type": "Feature", "properties": { "fid": 85, "id_lieu": "29205-C-001", "nom_lieu": "Aire de covoiturage Sainte-Catherine", "Xlong": "-3.546483865", "Ylat": "48.29889905", "com_code": "29205", "com_name": "Plounévézel" }, "geometry": { "type": "Point", "coordinates": [ -3.546483865, 48.29889905 ] } },
{ "type": "Feature", "properties": { "fid": 86, "id_lieu": "29216-C-001", "nom_lieu": "Aire de covoiturage Ti Lipig", "Xlong": "-4.168375413", "Ylat": "47.9547808", "com_code": "29216", "com_name": "Pluguffan" }, "geometry": { "type": "Point", "coordinates": [ -4.168375413, 47.9547808 ] } },
{ "type": "Feature", "properties": { "fid": 87, "id_lieu": "29224-C-001", "nom_lieu": "Aire de covoiturage Foennec Veur", "Xlong": "-4.32923363", "Ylat": "48.03872684", "com_code": "29224", "com_name": "Pouldergat" }, "geometry": { "type": "Point", "coordinates": [ -4.32923363, 48.03872684 ] } },
{ "type": "Feature", "properties": { "fid": 88, "id_lieu": "29232-C-001", "nom_lieu": "Aire de covoiturage Kernevez", "Xlong": "-4.147025891", "Ylat": "47.99975802", "com_code": "29232", "com_name": "Quimper" }, "geometry": { "type": "Point", "coordinates": [ -4.147025891, 47.99975802 ] } },
{ "type": "Feature", "properties": { "fid": 89, "id_lieu": "29232-C-002", "nom_lieu": "Aire de covoiturage Park Poullic", "Xlong": "-4.08346776", "Ylat": "48.03075507", "com_code": "29232", "com_name": "Quimper" }, "geometry": { "type": "Point", "coordinates": [ -4.08346776, 48.03075507 ] } },
{ "type": "Feature", "properties": { "fid": 90, "id_lieu": "29232-C-003", "nom_lieu": "Aire de covoiturage Troyalac'H", "Xlong": "-4.015627955", "Ylat": "47.97957429", "com_code": "29232", "com_name": "Quimper" }, "geometry": { "type": "Point", "coordinates": [ -4.015627955, 47.97957429 ] } },
{ "type": "Feature", "properties": { "fid": 91, "id_lieu": "29233-C-001", "nom_lieu": "Aire de covoiturage Kervidanou", "Xlong": "-3.584241427", "Ylat": "47.86830712", "com_code": "29233", "com_name": "Quimperlé" }, "geometry": { "type": "Point", "coordinates": [ -3.584241427, 47.86830712 ] } },
{ "type": "Feature", "properties": { "fid": 92, "id_lieu": "29234-C-001", "nom_lieu": "Aire de covoiturage Kerfleury", "Xlong": "-3.5093068", "Ylat": "47.84892196", "com_code": "29234", "com_name": "Rédené" }, "geometry": { "type": "Point", "coordinates": [ -3.5093068, 47.84892196 ] } },
{ "type": "Feature", "properties": { "fid": 93, "id_lieu": "29234-C-002", "nom_lieu": "Aire de covoiturage Le Croéziou", "Xlong": "-3.465483954", "Ylat": "47.85058747", "com_code": "29234", "com_name": "Rédené" }, "geometry": { "type": "Point", "coordinates": [ -3.465483954, 47.85058747 ] } },
{ "type": "Feature", "properties": { "fid": 94, "id_lieu": "29235-C-001", "nom_lieu": "Aire de covoiturage Kergleuz", "Xlong": "-4.407923978", "Ylat": "48.39871002", "com_code": "29235", "com_name": "Le Relecq-Kerhuon" }, "geometry": { "type": "Point", "coordinates": [ -4.407923978, 48.39871002 ] } },
{ "type": "Feature", "properties": { "fid": 95, "id_lieu": "29236-C-001", "nom_lieu": "Aire de covoiturage Kerandréo", "Xlong": "-3.70053248", "Ylat": "47.8865826", "com_code": "29236", "com_name": "Riec-sur-Bélon" }, "geometry": { "type": "Point", "coordinates": [ -3.70053248, 47.8865826 ] } },
{ "type": "Feature", "properties": { "fid": 96, "id_lieu": "29257-C-001", "nom_lieu": "Aire de covoiturage Tevenn Ar Reut", "Xlong": "-4.611350472", "Ylat": "48.56719854", "com_code": "29257", "com_name": "Saint-Pabu" }, "geometry": { "type": "Point", "coordinates": [ -4.611350472, 48.56719854 ] } },
{ "type": "Feature", "properties": { "fid": 97, "id_lieu": "29263-C-001", "nom_lieu": "Aire de covoiturage Ti Raden", "Xlong": "-4.076218395", "Ylat": "48.2249265", "com_code": "29263", "com_name": "Saint-Ségal" }, "geometry": { "type": "Point", "coordinates": [ -4.076218395, 48.2249265 ] } },
{ "type": "Feature", "properties": { "fid": 98, "id_lieu": "29265-C-001", "nom_lieu": "Aire de covoiturage Coat Conval", "Xlong": "-3.879252377", "Ylat": "48.5522446", "com_code": "29265", "com_name": "Sainte-Sève" }, "geometry": { "type": "Point", "coordinates": [ -3.879252377, 48.5522446 ] } },
{ "type": "Feature", "properties": { "fid": 99, "id_lieu": "29266-C-001", "nom_lieu": "Aire de covoiturage Saint-Thégonnec", "Xlong": "-3.940298016", "Ylat": "48.52725679", "com_code": "29266", "com_name": "Saint-Thégonnec Loc-Eguiner" }, "geometry": { "type": "Point", "coordinates": [ -3.940298016, 48.52725679 ] } },
{ "type": "Feature", "properties": { "fid": 100, "id_lieu": "29277-C-001", "nom_lieu": "Aire de covoiturage Ar Golenn", "Xlong": "-4.079011517", "Ylat": "48.39989711", "com_code": "29277", "com_name": "Sizun" }, "geometry": { "type": "Point", "coordinates": [ -4.079011517, 48.39989711 ] } },
{ "type": "Feature", "properties": { "fid": 101, "id_lieu": "33358-C-001", "nom_lieu": "Aire de covoiturage de Romagné", "Xlong": "-1.290113", "Ylat": "48.342244", "com_code": "35243", "com_name": "Romagné" }, "geometry": { "type": "Point", "coordinates": [ -1.290113, 48.342244 ] } },
{ "type": "Feature", "properties": { "fid": 102, "id_lieu": "35013-C-001", "nom_lieu": "Aire de covoiturage du Stade", "Xlong": "-2.070085565", "Ylat": "47.7052667", "com_code": "35013", "com_name": "Bains-sur-Oust" }, "geometry": { "type": "Point", "coordinates": [ -2.070085565, 47.7052667 ] } },
{ "type": "Feature", "properties": { "fid": 103, "id_lieu": "35024-C-001", "nom_lieu": "Aire de covoiturage La Haute Plesse", "Xlong": "-1.627058666", "Ylat": "48.17990167", "com_code": "35024", "com_name": "Betton" }, "geometry": { "type": "Point", "coordinates": [ -1.627058666, 48.17990167 ] } },
{ "type": "Feature", "properties": { "fid": 104, "id_lieu": "35037-C-001", "nom_lieu": "Aire de covoiturage Bréal-Sous-Montfort", "Xlong": "-1.877751333", "Ylat": "48.061167", "com_code": "35037", "com_name": "Bréal-sous-Montfort" }, "geometry": { "type": "Point", "coordinates": [ -1.877751333, 48.061167 ] } },
{ "type": "Feature", "properties": { "fid": 105, "id_lieu": "35047-C-001", "nom_lieu": "Aire de Bruz", "Xlong": "-1.767307512", "Ylat": "48.02644985", "com_code": "35047", "com_name": "Bruz" }, "geometry": { "type": "Point", "coordinates": [ -1.767307512, 48.02644985 ] } },
{ "type": "Feature", "properties": { "fid": 106, "id_lieu": "35051-C-001", "nom_lieu": "Aire de covoiturage de Vaux", "Xlong": "-1.628005333", "Ylat": "48.14008633", "com_code": "35051", "com_name": "Cesson-Sévigné" }, "geometry": { "type": "Point", "coordinates": [ -1.628005333, 48.14008633 ] } },
{ "type": "Feature", "properties": { "fid": 107, "id_lieu": "35066-C-001", "nom_lieu": "Aire de covoiturage de Chartres-De-Bretagne", "Xlong": "-1.695398999", "Ylat": "48.04313333", "com_code": "35066", "com_name": "Chartres-de-Bretagne" }, "geometry": { "type": "Point", "coordinates": [ -1.695398999, 48.04313333 ] } },
{ "type": "Feature", "properties": { "fid": 108, "id_lieu": "35076-C-001", "nom_lieu": "Aire de covoiturage Chavagne (Rond Point)", "Xlong": "-1.792717809", "Ylat": "48.07763767", "com_code": "35076", "com_name": "Chavagne" }, "geometry": { "type": "Point", "coordinates": [ -1.792717809, 48.07763767 ] } },
{ "type": "Feature", "properties": { "fid": 109, "id_lieu": "35099-C-001", "nom_lieu": "Aire de covoiturage de Domloup", "Xlong": "-1.519964825", "Ylat": "48.04113105", "com_code": "35099", "com_name": "Domloup" }, "geometry": { "type": "Point", "coordinates": [ -1.519964825, 48.04113105 ] } },
{ "type": "Feature", "properties": { "fid": 110, "id_lieu": "35109-C-001", "nom_lieu": "Aire de covoiturage Piquet", "Xlong": "-1.199458001", "Ylat": "48.07283433", "com_code": "35109", "com_name": "Étrelles" }, "geometry": { "type": "Point", "coordinates": [ -1.199458001, 48.07283433 ] } },
{ "type": "Feature", "properties": { "fid": 111, "id_lieu": "35123-C-001", "nom_lieu": "Aire de covoiturage Les Terres", "Xlong": "-1.813094", "Ylat": "47.99070633", "com_code": "35126", "com_name": "Guichen" }, "geometry": { "type": "Point", "coordinates": [ -1.813094, 47.99070633 ] } },
{ "type": "Feature", "properties": { "fid": 112, "id_lieu": "35124-C-001", "nom_lieu": "Aire de covoiturage de Grand-Fougeray", "Xlong": "-1.733395", "Ylat": "47.71906667", "com_code": "35124", "com_name": "Grand-Fougeray" }, "geometry": { "type": "Point", "coordinates": [ -1.733395, 47.71906667 ] } },
{ "type": "Feature", "properties": { "fid": 113, "id_lieu": "35126-C-001", "nom_lieu": "Aire de covoiturage La Courtinais", "Xlong": "-1.814881001", "Ylat": "47.97428067", "com_code": "35126", "com_name": "Guichen" }, "geometry": { "type": "Point", "coordinates": [ -1.814881001, 47.97428067 ] } },
{ "type": "Feature", "properties": { "fid": 114, "id_lieu": "35128-C-001", "nom_lieu": "Aire de covoiturage de La Plousiére", "Xlong": "-1.718396", "Ylat": "48.31091533", "com_code": "35128", "com_name": "Guipel" }, "geometry": { "type": "Point", "coordinates": [ -1.718396, 48.31091533 ] } },
{ "type": "Feature", "properties": { "fid": 115, "id_lieu": "35136-C-001", "nom_lieu": "Aire de covoiturage Janzé Nord", "Xlong": "-1.537484", "Ylat": "47.971483", "com_code": "35136", "com_name": "Janzé" }, "geometry": { "type": "Point", "coordinates": [ -1.537484, 47.971483 ] } },
{ "type": "Feature", "properties": { "fid": 116, "id_lieu": "35136-C-002", "nom_lieu": "Aire de L'Aubiniére", "Xlong": "-1.488427667", "Ylat": "47.967809", "com_code": "35136", "com_name": "Janzé" }, "geometry": { "type": "Point", "coordinates": [ -1.488427667, 47.967809 ] } },
{ "type": "Feature", "properties": { "fid": 117, "id_lieu": "35139-C-001", "nom_lieu": "Aire de covoiturage - La Lande de Villiers", "Xlong": "-1.696985999", "Ylat": "47.97422367", "com_code": "35139", "com_name": "Laillé" }, "geometry": { "type": "Point", "coordinates": [ -1.696985999, 47.97422367 ] } },
{ "type": "Feature", "properties": { "fid": 118, "id_lieu": "35149-C-001", "nom_lieu": "Aire des Landes de Canut", "Xlong": "-1.867963334", "Ylat": "47.96825", "com_code": "35149", "com_name": "Lassy" }, "geometry": { "type": "Point", "coordinates": [ -1.867963334, 47.96825 ] } },
{ "type": "Feature", "properties": { "fid": 119, "id_lieu": "35152-C-001", "nom_lieu": "Aire de covoiturage de Liffre", "Xlong": "-1.495823667", "Ylat": "48.219838", "com_code": "35152", "com_name": "Liffré" }, "geometry": { "type": "Point", "coordinates": [ -1.495823667, 48.219838 ] } },
{ "type": "Feature", "properties": { "fid": 120, "id_lieu": "35152-C-002", "nom_lieu": "Aire de covoiturage La Reposée", "Xlong": "-1.526413333", "Ylat": "48.20226667", "com_code": "35152", "com_name": "Liffré" }, "geometry": { "type": "Point", "coordinates": [ -1.526413333, 48.20226667 ] } },
{ "type": "Feature", "properties": { "fid": 121, "id_lieu": "35184-C-001", "nom_lieu": "Aire de covoiturage de Montauban", "Xlong": "-2.047438667", "Ylat": "48.205282", "com_code": "35184", "com_name": "Montauban-de-Bretagne" }, "geometry": { "type": "Point", "coordinates": [ -2.047438667, 48.205282 ] } },
{ "type": "Feature", "properties": { "fid": 122, "id_lieu": "35197-C-001", "nom_lieu": "Aire de covoiturage de Chevaigné", "Xlong": "-1.624457666", "Ylat": "48.20957633", "com_code": "35197", "com_name": "Mouazé" }, "geometry": { "type": "Point", "coordinates": [ -1.624457666, 48.20957633 ] } },
{ "type": "Feature", "properties": { "fid": 123, "id_lieu": "35206-C-001", "nom_lieu": "Aire de covoiturage de Noyal-Chatillon", "Xlong": "-1.683514999", "Ylat": "48.03900233", "com_code": "35206", "com_name": "Noyal-Châtillon-sur-Seiche" }, "geometry": { "type": "Point", "coordinates": [ -1.683514999, 48.03900233 ] } },
{ "type": "Feature", "properties": { "fid": 124, "id_lieu": "35219-C-001", "nom_lieu": "Aire de covoiturage de Pipriac", "Xlong": "-1.918255", "Ylat": "47.81636733", "com_code": "35219", "com_name": "Pipriac" }, "geometry": { "type": "Point", "coordinates": [ -1.918255, 47.81636733 ] } },
{ "type": "Feature", "properties": { "fid": 125, "id_lieu": "35223-C-001", "nom_lieu": "Aire de covoiturage Tregu", "Xlong": "-2.08514", "Ylat": "48.00353667", "com_code": "35223", "com_name": "Plélan-le-Grand" }, "geometry": { "type": "Point", "coordinates": [ -2.08514, 48.00353667 ] } },
{ "type": "Feature", "properties": { "fid": 126, "id_lieu": "35226-C-001", "nom_lieu": "Aire de covoiturage Pleugueneuc", "Xlong": "-1.906378667", "Ylat": "48.406461", "com_code": "35226", "com_name": "Pleugueneuc" }, "geometry": { "type": "Point", "coordinates": [ -1.906378667, 48.406461 ] } },
{ "type": "Feature", "properties": { "fid": 127, "id_lieu": "35227-C-001", "nom_lieu": "Aire de covoiturage de Pleumeleuc", "Xlong": "-1.921680001", "Ylat": "48.17496767", "com_code": "35227", "com_name": "Pleumeleuc" }, "geometry": { "type": "Point", "coordinates": [ -1.921680001, 48.17496767 ] } },
{ "type": "Feature", "properties": { "fid": 128, "id_lieu": "35238-C-001", "nom_lieu": "Aire de covoiturage Le Patis Tatelin", "Xlong": "-1.625830333", "Ylat": "48.15427533", "com_code": "35238", "com_name": "Rennes" }, "geometry": { "type": "Point", "coordinates": [ -1.625830333, 48.15427533 ] } },
{ "type": "Feature", "properties": { "fid": 129, "id_lieu": "35251-C-001", "nom_lieu": "Aire de covoiturage Saint-Aubin D'Aubigné", "Xlong": "-1.605462723", "Ylat": "48.25783652", "com_code": "35251", "com_name": "Saint-Aubin-d'Aubigné" }, "geometry": { "type": "Point", "coordinates": [ -1.605462723, 48.25783652 ] } },
{ "type": "Feature", "properties": { "fid": 130, "id_lieu": "35253-C-001", "nom_lieu": "Aire de covoiturage de La Mottais", "Xlong": "-1.413561667", "Ylat": "48.25908367", "com_code": "35253", "com_name": "Saint-Aubin-du-Cormier" }, "geometry": { "type": "Point", "coordinates": [ -1.413561667, 48.25908367 ] } },
{ "type": "Feature", "properties": { "fid": 131, "id_lieu": "35265-C-001", "nom_lieu": "Aire du Rocher", "Xlong": "-1.874199333", "Ylat": "48.36522167", "com_code": "35265", "com_name": "Saint-Domineuc" }, "geometry": { "type": "Point", "coordinates": [ -1.874199333, 48.36522167 ] } },
{ "type": "Feature", "properties": { "fid": 132, "id_lieu": "35270-C-001", "nom_lieu": "Aire de covoiturage Le Clos Richard", "Xlong": "-1.536609906", "Ylat": "48.56438193", "com_code": "35270", "com_name": "Saint-Georges-de-Gréhaigne" }, "geometry": { "type": "Point", "coordinates": [ -1.536609906, 48.56438193 ] } },
{ "type": "Feature", "properties": { "fid": 133, "id_lieu": "35294-C-001", "nom_lieu": "Aire de covoiturage - Butte des Saulniers", "Xlong": "-2.020719238", "Ylat": "47.69849161", "com_code": "35294", "com_name": "Sainte-Marie" }, "geometry": { "type": "Point", "coordinates": [ -2.020719238, 47.69849161 ] } },
{ "type": "Feature", "properties": { "fid": 134, "id_lieu": "35306-C-001", "nom_lieu": "Aire du Fort Saint-Pére", "Xlong": "-1.923428333", "Ylat": "48.56534267", "com_code": "35306", "com_name": "Saint-Père-Marc-en-Poulet" }, "geometry": { "type": "Point", "coordinates": [ -1.923428333, 48.56534267 ] } },
{ "type": "Feature", "properties": { "fid": 135, "id_lieu": "35317-C-001", "nom_lieu": "Aire de covoiturage de Saint-Symphorien", "Xlong": "-1.801706683", "Ylat": "48.28624652", "com_code": "35317", "com_name": "Saint-Symphorien" }, "geometry": { "type": "Point", "coordinates": [ -1.801706683, 48.28624652 ] } },
{ "type": "Feature", "properties": { "fid": 136, "id_lieu": "35319-C-001", "nom_lieu": "Aire de covoiturage de Cossinade", "Xlong": "-1.927990001", "Ylat": "48.04532333", "com_code": "35319", "com_name": "Saint-Thurial" }, "geometry": { "type": "Point", "coordinates": [ -1.927990001, 48.04532333 ] } },
{ "type": "Feature", "properties": { "fid": 137, "id_lieu": "35326-C-001", "nom_lieu": "Aire de covoiturage Sens-De-Bretagne", "Xlong": "-1.527401756", "Ylat": "48.33123115", "com_code": "35326", "com_name": "Sens-de-Bretagne" }, "geometry": { "type": "Point", "coordinates": [ -1.527401756, 48.33123115 ] } },
{ "type": "Feature", "properties": { "fid": 138, "id_lieu": "35333-C-001", "nom_lieu": "Aire de covoiturage du Bourg Neuf", "Xlong": "-1.419081667", "Ylat": "47.919645", "com_code": "35333", "com_name": "Le Theil-de-Bretagne" }, "geometry": { "type": "Point", "coordinates": [ -1.419081667, 47.919645 ] } },
{ "type": "Feature", "properties": { "fid": 139, "id_lieu": "35356-C-001", "nom_lieu": "Aire de covoiturage Vignoc", "Xlong": "-1.772886424", "Ylat": "48.25107536", "com_code": "35356", "com_name": "Vignoc" }, "geometry": { "type": "Point", "coordinates": [ -1.772886424, 48.25107536 ] } },
{ "type": "Feature", "properties": { "fid": 140, "id_lieu": "56001-C-001", "nom_lieu": "Aire de covoiturage de Intermarché. Cap Ouest", "Xlong": "-2.176899", "Ylat": "47.633338", "com_code": "56001", "com_name": "Allaire" }, "geometry": { "type": "Point", "coordinates": [ -2.176899, 47.633338 ] } },
{ "type": "Feature", "properties": { "fid": 141, "id_lieu": "56002-C-001", "nom_lieu": "Aire de covoiturage de Sainte Julitte", "Xlong": "-2.545577", "Ylat": "47.584446", "com_code": "56002", "com_name": "Ambon" }, "geometry": { "type": "Point", "coordinates": [ -2.545577, 47.584446 ] } },
{ "type": "Feature", "properties": { "fid": 142, "id_lieu": "56003-C-001", "nom_lieu": "Aire de covoiturage de Botquelen", "Xlong": "-2.818309", "Ylat": "47.64101", "com_code": "56003", "com_name": "Arradon" }, "geometry": { "type": "Point", "coordinates": [ -2.818309, 47.64101 ] } },
{ "type": "Feature", "properties": { "fid": 143, "id_lieu": "56004-C-001", "nom_lieu": "Aire de covoiturage de La Corne du Cerf", "Xlong": "-2.390261", "Ylat": "47.53387", "com_code": "56004", "com_name": "Arzal" }, "geometry": { "type": "Point", "coordinates": [ -2.390261, 47.53387 ] } },
{ "type": "Feature", "properties": { "fid": 144, "id_lieu": "56005-C-001", "nom_lieu": "Parking Rue Leen Vihan (En Face de La Maison du Port)", "Xlong": "-2.88907", "Ylat": "47.545612", "com_code": "56005", "com_name": "Arzon" }, "geometry": { "type": "Point", "coordinates": [ -2.88907, 47.545612 ] } },
{ "type": "Feature", "properties": { "fid": 145, "id_lieu": "56008-C-001", "nom_lieu": "Rond Point de Baden", "Xlong": "-2.906745", "Ylat": "47.621141", "com_code": "56008", "com_name": "Baden" }, "geometry": { "type": "Point", "coordinates": [ -2.906745, 47.621141 ] } },
{ "type": "Feature", "properties": { "fid": 146, "id_lieu": "56010-C-001", "nom_lieu": "Aire de covoiturage de Kermestre", "Xlong": "-3.010244", "Ylat": "47.89663", "com_code": "56010", "com_name": "Baud" }, "geometry": { "type": "Point", "coordinates": [ -3.010244, 47.89663 ] } },
{ "type": "Feature", "properties": { "fid": 147, "id_lieu": "56010-C-002", "nom_lieu": "Pont de Baud", "Xlong": "-3.017616", "Ylat": "47.864843", "com_code": "56010", "com_name": "Baud" }, "geometry": { "type": "Point", "coordinates": [ -3.017616, 47.864843 ] } },
{ "type": "Feature", "properties": { "fid": 148, "id_lieu": "56014-C-001", "nom_lieu": "Aire de covoiturage de Poulhibet", "Xlong": "-3.384107", "Ylat": "47.94957", "com_code": "56166", "com_name": "Plouay" }, "geometry": { "type": "Point", "coordinates": [ -3.384107, 47.94957 ] } },
{ "type": "Feature", "properties": { "fid": 149, "id_lieu": "56020-C-001", "nom_lieu": "Aire de covoiturage de Bel Orient", "Xlong": "-2.455255", "Ylat": "47.781561", "com_code": "56020", "com_name": "Bohal" }, "geometry": { "type": "Point", "coordinates": [ -2.455255, 47.781561 ] } },
{ "type": "Feature", "properties": { "fid": 150, "id_lieu": "56021-C-001", "nom_lieu": "Aire de covoiturage de Boul Sapin", "Xlong": "-3.197375", "Ylat": "47.782196", "com_code": "56021", "com_name": "Brandérion" }, "geometry": { "type": "Point", "coordinates": [ -3.197375, 47.782196 ] } },
{ "type": "Feature", "properties": { "fid": 151, "id_lieu": "56023-C-001", "nom_lieu": "Aire de covoiturage de Kérisan", "Xlong": "-3.022979", "Ylat": "47.683491", "com_code": "56023", "com_name": "Brech" }, "geometry": { "type": "Point", "coordinates": [ -3.022979, 47.683491 ] } },
{ "type": "Feature", "properties": { "fid": 152, "id_lieu": "56030-C-002", "nom_lieu": "Aire de covoiturage de Les Vieilles Roches", "Xlong": "-2.385391", "Ylat": "47.483215", "com_code": "56030", "com_name": "Camoël" }, "geometry": { "type": "Point", "coordinates": [ -2.385391, 47.483215 ] } },
{ "type": "Feature", "properties": { "fid": 153, "id_lieu": "56032-C-001", "nom_lieu": "Aire de covoiturage de Le Linvo", "Xlong": "-2.285434", "Ylat": "47.940217", "com_code": "56032", "com_name": "Campénéac" }, "geometry": { "type": "Point", "coordinates": [ -2.285434, 47.940217 ] } },
{ "type": "Feature", "properties": { "fid": 154, "id_lieu": "56034-C-001", "nom_lieu": "Aire de covoiturage de Kergroix", "Xlong": "-3.048336", "Ylat": "47.638065", "com_code": "56034", "com_name": "Carnac" }, "geometry": { "type": "Point", "coordinates": [ -3.048336, 47.638065 ] } },
{ "type": "Feature", "properties": { "fid": 155, "id_lieu": "56034-C-002", "nom_lieu": "Aire de covoiturage de Le Purgatoire", "Xlong": "-3.073447", "Ylat": "47.621582", "com_code": "56034", "com_name": "Carnac" }, "geometry": { "type": "Point", "coordinates": [ -3.073447, 47.621582 ] } },
{ "type": "Feature", "properties": { "fid": 156, "id_lieu": "56034-C-003", "nom_lieu": "Aire de covoiturage de Kercado", "Xlong": "-3.333067", "Ylat": "47.816587", "com_code": "56036", "com_name": "Caudan" }, "geometry": { "type": "Point", "coordinates": [ -3.333067, 47.816587 ] } },
{ "type": "Feature", "properties": { "fid": 157, "id_lieu": "56035-C-001", "nom_lieu": "Aire de covoiturage de Le Grand Village", "Xlong": "-2.336722", "Ylat": "47.866941", "com_code": "56035", "com_name": "Caro" }, "geometry": { "type": "Point", "coordinates": [ -2.336722, 47.866941 ] } },
{ "type": "Feature", "properties": { "fid": 158, "id_lieu": "56036-C-001", "nom_lieu": "Aire de covoiturage de Lann", "Xlong": "-3.348774", "Ylat": "47.784757", "com_code": "56036", "com_name": "Caudan" }, "geometry": { "type": "Point", "coordinates": [ -3.348774, 47.784757 ] } },
{ "type": "Feature", "properties": { "fid": 159, "id_lieu": "56046-C-001", "nom_lieu": "Aire de covoiturage de Poulben", "Xlong": "-2.985122", "Ylat": "47.649169", "com_code": "56046", "com_name": "Crach" }, "geometry": { "type": "Point", "coordinates": [ -2.985122, 47.649169 ] } },
{ "type": "Feature", "properties": { "fid": 160, "id_lieu": "56046-C-002", "nom_lieu": "Aire de covoiturage de Toul Garros", "Xlong": "-3.016363", "Ylat": "47.667165", "com_code": "56046", "com_name": "Crach" }, "geometry": { "type": "Point", "coordinates": [ -3.016363, 47.667165 ] } },
{ "type": "Feature", "properties": { "fid": 161, "id_lieu": "56046-C-003", "nom_lieu": "Aire de covoiturage de Toul Garros Sud", "Xlong": "-3.015885", "Ylat": "47.659903", "com_code": "56046", "com_name": "Crach" }, "geometry": { "type": "Point", "coordinates": [ -3.015885, 47.659903 ] } },
{ "type": "Feature", "properties": { "fid": 162, "id_lieu": "56053-C-001", "nom_lieu": "Aire de covoiturage de Kerchoux", "Xlong": "-2.551228", "Ylat": "47.753053", "com_code": "56053", "com_name": "Elven" }, "geometry": { "type": "Point", "coordinates": [ -2.551228, 47.753053 ] } },
{ "type": "Feature", "properties": { "fid": 163, "id_lieu": "56053-C-002", "nom_lieu": "Aire de covoiturage de Lamboux", "Xlong": "-2.585174", "Ylat": "47.724598", "com_code": "56053", "com_name": "Elven" }, "geometry": { "type": "Point", "coordinates": [ -2.585174, 47.724598 ] } },
{ "type": "Feature", "properties": { "fid": 164, "id_lieu": "56053-C-003", "nom_lieu": "Aire de covoiturage de Le Penrho", "Xlong": "-2.5755", "Ylat": "47.691595", "com_code": "56053", "com_name": "Elven" }, "geometry": { "type": "Point", "coordinates": [ -2.5755, 47.691595 ] } },
{ "type": "Feature", "properties": { "fid": 165, "id_lieu": "56066-C-001", "nom_lieu": "Aire de covoiturage de Kerbos", "Xlong": "-3.629214", "Ylat": "48.141134", "com_code": "56066", "com_name": "Gourin" }, "geometry": { "type": "Point", "coordinates": [ -3.629214, 48.141134 ] } },
{ "type": "Feature", "properties": { "fid": 166, "id_lieu": "56075-C-001", "nom_lieu": "Aire de covoiturage de Val Coric", "Xlong": "-2.12752", "Ylat": "47.929709", "com_code": "56075", "com_name": "Guer" }, "geometry": { "type": "Point", "coordinates": [ -2.12752, 47.929709 ] } },
{ "type": "Feature", "properties": { "fid": 167, "id_lieu": "56077-C-001", "nom_lieu": "Poteau de Kergentil", "Xlong": "-2.404357", "Ylat": "47.572911", "com_code": "56077", "com_name": "Le Guerno" }, "geometry": { "type": "Point", "coordinates": [ -2.404357, 47.572911 ] } },
{ "type": "Feature", "properties": { "fid": 168, "id_lieu": "56078-C-001", "nom_lieu": "Aire de covoiturage de L'Estran", "Xlong": "-3.487474", "Ylat": "47.799319", "com_code": "56078", "com_name": "Guidel" }, "geometry": { "type": "Point", "coordinates": [ -3.487474, 47.799319 ] } },
{ "type": "Feature", "properties": { "fid": 169, "id_lieu": "56078-C-002", "nom_lieu": "Aire de covoiturage de Pen Mané", "Xlong": "-3.460196", "Ylat": "47.80617", "com_code": "56078", "com_name": "Guidel" }, "geometry": { "type": "Point", "coordinates": [ -3.460196, 47.80617 ] } },
{ "type": "Feature", "properties": { "fid": 170, "id_lieu": "56079-C-001", "nom_lieu": "Aire de covoiturage de La Belle Allouette", "Xlong": "-2.499134", "Ylat": "47.93754", "com_code": "56079", "com_name": "Guillac" }, "geometry": { "type": "Point", "coordinates": [ -2.499134, 47.93754 ] } },
{ "type": "Feature", "properties": { "fid": 171, "id_lieu": "56079-C-002", "nom_lieu": "Aire de covoiturage de La Pyramide", "Xlong": "-2.483644", "Ylat": "47.935731", "com_code": "56079", "com_name": "Guillac" }, "geometry": { "type": "Point", "coordinates": [ -2.483644, 47.935731 ] } },
{ "type": "Feature", "properties": { "fid": 172, "id_lieu": "56084-C-001", "nom_lieu": "Aire de covoiturage de Le Hezo", "Xlong": "-2.694201", "Ylat": "47.581918", "com_code": "56084", "com_name": "Le Hézo" }, "geometry": { "type": "Point", "coordinates": [ -2.694201, 47.581918 ] } },
{ "type": "Feature", "properties": { "fid": 173, "id_lieu": "56091-C-001", "nom_lieu": "Rue de L'écusson", "Xlong": "-2.553786", "Ylat": "47.958677", "com_code": "56091", "com_name": "Josselin" }, "geometry": { "type": "Point", "coordinates": [ -2.553786, 47.958677 ] } },
{ "type": "Feature", "properties": { "fid": 174, "id_lieu": "56094-C-001", "nom_lieu": "Aire de covoiturage de Kergo-Kernous", "Xlong": "-3.286759", "Ylat": "47.759906", "com_code": "56094", "com_name": "Kervignac" }, "geometry": { "type": "Point", "coordinates": [ -3.286759, 47.759906 ] } },
{ "type": "Feature", "properties": { "fid": 175, "id_lieu": "56094-C-002", "nom_lieu": "Aire de covoiturage de Le Porzo", "Xlong": "-3.238014", "Ylat": "47.79493", "com_code": "56094", "com_name": "Kervignac" }, "geometry": { "type": "Point", "coordinates": [ -3.238014, 47.79493 ] } },
{ "type": "Feature", "properties": { "fid": 176, "id_lieu": "56096-C-001", "nom_lieu": "Aire de covoiturage de Le Poulvern", "Xlong": "-3.090235", "Ylat": "47.733121", "com_code": "56096", "com_name": "Landaul" }, "geometry": { "type": "Point", "coordinates": [ -3.090235, 47.733121 ] } },
{ "type": "Feature", "properties": { "fid": 177, "id_lieu": "56097-C-001", "nom_lieu": "Aire de covoiturage de Mané Craping", "Xlong": "-3.139936", "Ylat": "47.759757", "com_code": "56097", "com_name": "Landévant" }, "geometry": { "type": "Point", "coordinates": [ -3.139936, 47.759757 ] } },
{ "type": "Feature", "properties": { "fid": 178, "id_lieu": "56098-C-001", "nom_lieu": "Aire de covoiturage de Géant", "Xlong": "-3.343389", "Ylat": "47.777579", "com_code": "56098", "com_name": "Lanester" }, "geometry": { "type": "Point", "coordinates": [ -3.343389, 47.777579 ] } },
{ "type": "Feature", "properties": { "fid": 179, "id_lieu": "56112-C-001", "nom_lieu": "Aire de covoiturage de Sainte Catherine", "Xlong": "-2.4944", "Ylat": "47.873391", "com_code": "56112", "com_name": "Lizio" }, "geometry": { "type": "Point", "coordinates": [ -2.4944, 47.873391 ] } },
{ "type": "Feature", "properties": { "fid": 180, "id_lieu": "56115-C-001", "nom_lieu": "Aire de covoiturage de Champ", "Xlong": "-2.848733", "Ylat": "47.760145", "com_code": "56067", "com_name": "Grand-Champ" }, "geometry": { "type": "Point", "coordinates": [ -2.848733, 47.760145 ] } },
{ "type": "Feature", "properties": { "fid": 181, "id_lieu": "56115-C-002", "nom_lieu": "Aire de covoiturage de Collec", "Xlong": "-2.781111", "Ylat": "47.757942", "com_code": "56115", "com_name": "Locmaria-Grand-Champ" }, "geometry": { "type": "Point", "coordinates": [ -2.781111, 47.757942 ] } },
{ "type": "Feature", "properties": { "fid": 182, "id_lieu": "56122-C-001", "nom_lieu": "Aire de covoiturage de Loyat", "Xlong": "-2.379918", "Ylat": "47.975316", "com_code": "56122", "com_name": "Loyat" }, "geometry": { "type": "Point", "coordinates": [ -2.379918, 47.975316 ] } },
{ "type": "Feature", "properties": { "fid": 183, "id_lieu": "56127-C-001", "nom_lieu": "Aire de covoiturage de Voie Verte", "Xlong": "-2.271058", "Ylat": "48.079882", "com_code": "56127", "com_name": "Mauron" }, "geometry": { "type": "Point", "coordinates": [ -2.271058, 48.079882 ] } },
{ "type": "Feature", "properties": { "fid": 184, "id_lieu": "56143-C-001", "nom_lieu": "Aire de covoiturage de Terre Océan", "Xlong": "-2.501261", "Ylat": "47.558568", "com_code": "56002", "com_name": "Ambon" }, "geometry": { "type": "Point", "coordinates": [ -2.501261, 47.558568 ] } },
{ "type": "Feature", "properties": { "fid": 185, "id_lieu": "56147-C-001", "nom_lieu": "Pont Suspendu", "Xlong": "-2.303977", "Ylat": "47.525974", "com_code": "56126", "com_name": "Marzan" }, "geometry": { "type": "Point", "coordinates": [ -2.303977, 47.525974 ] } },
{ "type": "Feature", "properties": { "fid": 186, "id_lieu": "56151-C-001", "nom_lieu": "Aire de covoiturage de Le Gohéléve", "Xlong": "-2.941609", "Ylat": "48.054378", "com_code": "56151", "com_name": "Noyal-Pontivy" }, "geometry": { "type": "Point", "coordinates": [ -2.941609, 48.054378 ] } },
{ "type": "Feature", "properties": { "fid": 187, "id_lieu": "56153-C-001", "nom_lieu": "Place des Jardins", "Xlong": "-2.361207", "Ylat": "47.579242", "com_code": "56153", "com_name": "Péaule" }, "geometry": { "type": "Point", "coordinates": [ -2.361207, 47.579242 ] } },
{ "type": "Feature", "properties": { "fid": 188, "id_lieu": "56157-C-001", "nom_lieu": "Aire de covoiturage de Le Croazo", "Xlong": "-2.685105", "Ylat": "47.778011", "com_code": "56157", "com_name": "Plaudren" }, "geometry": { "type": "Point", "coordinates": [ -2.685105, 47.778011 ] } },
{ "type": "Feature", "properties": { "fid": 189, "id_lieu": "56161-C-001", "nom_lieu": "Aire de covoiturage de Groéz-Ven", "Xlong": "-3.071279", "Ylat": "47.652358", "com_code": "56161", "com_name": "Ploemel" }, "geometry": { "type": "Point", "coordinates": [ -3.071279, 47.652358 ] } },
{ "type": "Feature", "properties": { "fid": 190, "id_lieu": "56161-C-002", "nom_lieu": "Aire de covoiturage de Corn Er Hoét", "Xlong": "-3.041004", "Ylat": "47.666039", "com_code": "56161", "com_name": "Ploemel" }, "geometry": { "type": "Point", "coordinates": [ -3.041004, 47.666039 ] } },
{ "type": "Feature", "properties": { "fid": 191, "id_lieu": "56164-C-001", "nom_lieu": "Aire de covoiturage de Les deux Moulins", "Xlong": "-2.860431", "Ylat": "47.658692", "com_code": "56164", "com_name": "Ploeren" }, "geometry": { "type": "Point", "coordinates": [ -2.860431, 47.658692 ] } },
{ "type": "Feature", "properties": { "fid": 192, "id_lieu": "56165-C-001", "nom_lieu": "Aire de covoiturage de Ronsouze", "Xlong": "-2.383223", "Ylat": "47.919775", "com_code": "56165", "com_name": "Ploërmel" }, "geometry": { "type": "Point", "coordinates": [ -2.383223, 47.919775 ] } },
{ "type": "Feature", "properties": { "fid": 193, "id_lieu": "56166-C-001", "nom_lieu": "Aire de covoiturage de Kerfétan", "Xlong": "-3.306063", "Ylat": "47.90026", "com_code": "56166", "com_name": "Plouay" }, "geometry": { "type": "Point", "coordinates": [ -3.306063, 47.90026 ] } },
{ "type": "Feature", "properties": { "fid": 194, "id_lieu": "56166-C-002", "nom_lieu": "Aire de covoiturage de Manério", "Xlong": "-3.332793", "Ylat": "47.909585", "com_code": "56166", "com_name": "Plouay" }, "geometry": { "type": "Point", "coordinates": [ -3.332793, 47.909585 ] } },
{ "type": "Feature", "properties": { "fid": 195, "id_lieu": "56167-C-001", "nom_lieu": "Aire de covoiturage de Zone du Keneah", "Xlong": "-2.897153", "Ylat": "47.668401", "com_code": "56167", "com_name": "Plougoumelen" }, "geometry": { "type": "Point", "coordinates": [ -2.897153, 47.668401 ] } },
{ "type": "Feature", "properties": { "fid": 196, "id_lieu": "56169-C-001", "nom_lieu": "Aire de covoiturage de Manéguen", "Xlong": "-3.220152", "Ylat": "47.706464", "com_code": "56169", "com_name": "Plouhinec" }, "geometry": { "type": "Point", "coordinates": [ -3.220152, 47.706464 ] } },
{ "type": "Feature", "properties": { "fid": 197, "id_lieu": "56176-C-001", "nom_lieu": "Aire de covoiturage de Ker Go Ho", "Xlong": "-2.955165", "Ylat": "47.66719", "com_code": "56176", "com_name": "Pluneret" }, "geometry": { "type": "Point", "coordinates": [ -2.955165, 47.66719 ] } },
{ "type": "Feature", "properties": { "fid": 198, "id_lieu": "56176-C-002", "nom_lieu": "Aire de covoiturage de Mériadec", "Xlong": "-2.897984", "Ylat": "47.697269", "com_code": "56175", "com_name": "Plumergat" }, "geometry": { "type": "Point", "coordinates": [ -2.897984, 47.697269 ] } },
{ "type": "Feature", "properties": { "fid": 199, "id_lieu": "56179-C-001", "nom_lieu": "Aire de covoiturage de Ninijo Route de Quimperlé", "Xlong": "-3.41245", "Ylat": "47.83366", "com_code": "56179", "com_name": "Pont-Scorff" }, "geometry": { "type": "Point", "coordinates": [ -3.41245, 47.83366 ] } },
{ "type": "Feature", "properties": { "fid": 200, "id_lieu": "56179-C-002", "nom_lieu": "Route de Lorient", "Xlong": "-3.404594", "Ylat": "47.829438", "com_code": "56179", "com_name": "Pont-Scorff" }, "geometry": { "type": "Point", "coordinates": [ -3.404594, 47.829438 ] } },
{ "type": "Feature", "properties": { "fid": 201, "id_lieu": "56184-C-001", "nom_lieu": "Aire de covoiturage de Bel Air", "Xlong": "-2.449324", "Ylat": "47.684666", "com_code": "56184", "com_name": "Questembert" }, "geometry": { "type": "Point", "coordinates": [ -2.449324, 47.684666 ] } },
{ "type": "Feature", "properties": { "fid": 202, "id_lieu": "56184-C-002", "nom_lieu": "Aire de covoiturage de Le Petit Molac", "Xlong": "-2.424241", "Ylat": "47.681134", "com_code": "56184", "com_name": "Questembert" }, "geometry": { "type": "Point", "coordinates": [ -2.424241, 47.681134 ] } },
{ "type": "Feature", "properties": { "fid": 203, "id_lieu": "56194-C-001", "nom_lieu": "Aire de covoiturage de Chénes Bouteilles", "Xlong": "-2.149065", "Ylat": "47.612485", "com_code": "56194", "com_name": "Rieux" }, "geometry": { "type": "Point", "coordinates": [ -2.149065, 47.612485 ] } },
{ "type": "Feature", "properties": { "fid": 204, "id_lieu": "56198-C-001", "nom_lieu": "Place du Chéteau", "Xlong": "-2.753222", "Ylat": "48.067572", "com_code": "56198", "com_name": "Rohan" }, "geometry": { "type": "Point", "coordinates": [ -2.753222, 48.067572 ] } },
{ "type": "Feature", "properties": { "fid": 205, "id_lieu": "56202-C-001", "nom_lieu": "Aire de covoiturage de Le Val D'Oust", "Xlong": "-2.421713", "Ylat": "47.853371", "com_code": "56197", "com_name": "Val d'Oust" }, "geometry": { "type": "Point", "coordinates": [ -2.421713, 47.853371 ] } },
{ "type": "Feature", "properties": { "fid": 206, "id_lieu": "56205-C-001", "nom_lieu": "Aire de covoiturage de Armel", "Xlong": "-2.714008", "Ylat": "47.565596", "com_code": "56205", "com_name": "Saint-Armel" }, "geometry": { "type": "Point", "coordinates": [ -2.714008, 47.565596 ] } },
{ "type": "Feature", "properties": { "fid": 207, "id_lieu": "56214-C-001", "nom_lieu": "Rue de St Goustan", "Xlong": "-2.804453", "Ylat": "47.512268", "com_code": "56214", "com_name": "Saint-Gildas-de-Rhuys" }, "geometry": { "type": "Point", "coordinates": [ -2.804453, 47.512268 ] } },
{ "type": "Feature", "properties": { "fid": 208, "id_lieu": "56231-C-001", "nom_lieu": "Aire de covoiturage de Kerboulard", "Xlong": "-2.633671", "Ylat": "47.695577", "com_code": "56231", "com_name": "Saint-Nolff" }, "geometry": { "type": "Point", "coordinates": [ -2.633671, 47.695577 ] } },
{ "type": "Feature", "properties": { "fid": 209, "id_lieu": "56240-C-001", "nom_lieu": "Aire de covoiturage de Saint Colombier", "Xlong": "-2.720736", "Ylat": "47.546912", "com_code": "56240", "com_name": "Sarzeau" }, "geometry": { "type": "Point", "coordinates": [ -2.720736, 47.546912 ] } },
{ "type": "Feature", "properties": { "fid": 210, "id_lieu": "56244-C-001", "nom_lieu": "Aire de covoiturage de Le Gros Chéne", "Xlong": "-2.435421", "Ylat": "47.819795", "com_code": "56244", "com_name": "Sérent" }, "geometry": { "type": "Point", "coordinates": [ -2.435421, 47.819795 ] } },
{ "type": "Feature", "properties": { "fid": 211, "id_lieu": "56251-C-001", "nom_lieu": "Aire de covoiturage de Croix Lann", "Xlong": "-2.614355", "Ylat": "47.613627", "com_code": "56251", "com_name": "Theix-Noyalo" }, "geometry": { "type": "Point", "coordinates": [ -2.614355, 47.613627 ] } },
{ "type": "Feature", "properties": { "fid": 212, "id_lieu": "56251-C-002", "nom_lieu": "Aire de covoiturage de Theix Rond Point de Since", "Xlong": "-2.681642", "Ylat": "47.636281", "com_code": "56251", "com_name": "Theix-Noyalo" }, "geometry": { "type": "Point", "coordinates": [ -2.681642, 47.636281 ] } },
{ "type": "Feature", "properties": { "fid": 213, "id_lieu": "56257-C-001", "nom_lieu": "Aire de covoiturage de Porhoet", "Xlong": "-2.535549", "Ylat": "48.096889", "com_code": "56257", "com_name": "La Trinité-Porhoët" }, "geometry": { "type": "Point", "coordinates": [ -2.535549, 48.096889 ] } },
{ "type": "Feature", "properties": { "fid": 214, "id_lieu": "56260-C-001", "nom_lieu": "Aire de covoiturage de Atlanville", "Xlong": "-2.789974", "Ylat": "47.670669", "com_code": "56260", "com_name": "Vannes" }, "geometry": { "type": "Point", "coordinates": [ -2.789974, 47.670669 ] } },
{ "type": "Feature", "properties": { "fid": 215, "id_lieu": "56260-C-002", "nom_lieu": "Rond Point des 3 Rois", "Xlong": "-2.769405", "Ylat": "47.686177", "com_code": "56260", "com_name": "Vannes" }, "geometry": { "type": "Point", "coordinates": [ -2.769405, 47.686177 ] } },
{ "type": "Feature", "properties": { "fid": 216, "id_lieu": "56261-C-001", "nom_lieu": "Aire de covoiturage de Croix", "Xlong": "-2.540475", "Ylat": "47.69582", "com_code": "56261", "com_name": "La Vraie-Croix" }, "geometry": { "type": "Point", "coordinates": [ -2.540475, 47.69582 ] } },
{ "type": "Feature", "properties": { "fid": 217, "id_lieu": "56263-C-001", "nom_lieu": "Aire de covoiturage de Lénunes", "Xlong": "-2.955411", "Ylat": "47.703913", "com_code": "56263", "com_name": "Sainte-Anne-d'Auray" }, "geometry": { "type": "Point", "coordinates": [ -2.955411, 47.703913 ] } },
{ "type": "Feature", "properties": { "fid": 218, "id_lieu": "56264-C-001", "nom_lieu": "Aire de covoiturage de Ty Richard", "Xlong": "-3.340713", "Ylat": "48.007182", "com_code": "56264", "com_name": "Kernascléden" }, "geometry": { "type": "Point", "coordinates": [ -3.340713, 48.007182 ] } },
{ "type": "Feature", "properties": { "fid": 219, "id_lieu": "35223-C-002", "nom_lieu": "Les Korrigans", "Xlong": "-2.089015602683655", "Ylat": "48.006613918179795", "com_code": "35223", "com_name": "Plélan-le-Grand" }, "geometry": { "type": "Point", "coordinates": [ -2.089015602683655, 48.006613918179795 ] } },
{ "type": "Feature", "properties": { "fid": 220, "id_lieu": "22190-C-002", "nom_lieu": "La Grignardais", "Xlong": "-2.04078443071613", "Ylat": "48.5219328338633", "com_code": "22190", "com_name": "Pleslin-Trigavou" }, "geometry": { "type": "Point", "coordinates": [ -2.04078443071613, 48.521932833863303 ] } },
{ "type": "Feature", "properties": { "fid": 221, "id_lieu": "22208-C-001", "nom_lieu": "Place du 19 Mars 1962", "Xlong": "-2.00705544325251", "Ylat": "48.2997451409182", "com_code": "22208", "com_name": "Plouasne" }, "geometry": { "type": "Point", "coordinates": [ -2.00705544325251, 48.299745140918198 ] } },
{ "type": "Feature", "properties": { "fid": 222, "id_lieu": "22213-C-002", "nom_lieu": "La Chiennais", "Xlong": "-2.01332826218556", "Ylat": "48.5359886238677", "com_code": "22213", "com_name": "Plouër-sur-Rance" }, "geometry": { "type": "Point", "coordinates": [ -2.01332826218556, 48.535988623867702 ] } },
{ "type": "Feature", "properties": { "fid": 223, "id_lieu": "22259-C-004", "nom_lieu": "Bel Air", "Xlong": "-2.0924504890629", "Ylat": "48.4467500411557", "com_code": "22259", "com_name": "Quévert" }, "geometry": { "type": "Point", "coordinates": [ -2.0924504890629, 48.446750041155703 ] } },
{ "type": "Feature", "properties": { "fid": 224, "id_lieu": "22259-C-005", "nom_lieu": "LA LANDE SEGUIN", "Xlong": "-2.09013306066279", "Ylat": "48.447034705486", "com_code": "22259", "com_name": "Quévert" }, "geometry": { "type": "Point", "coordinates": [ -2.09013306066279, 48.447034705485997 ] } },
{ "type": "Feature", "properties": { "fid": 225, "id_lieu": "22259-C-006", "nom_lieu": "QUEVERT", "Xlong": "-2.06731094710314", "Ylat": "48.4623113968998", "com_code": "22259", "com_name": "Quévert" }, "geometry": { "type": "Point", "coordinates": [ -2.06731094710314, 48.4623113968998 ] } },
{ "type": "Feature", "properties": { "fid": 226, "id_lieu": "22259-C-007", "nom_lieu": "LES CHAMPS BLANCS", "Xlong": "-2.09219299795097", "Ylat": "48.4461237764297", "com_code": "22259", "com_name": "Quévert" }, "geometry": { "type": "Point", "coordinates": [ -2.09219299795097, 48.446123776429701 ] } },
{ "type": "Feature", "properties": { "fid": 227, "id_lieu": "22263-C-001", "nom_lieu": "La Chonette", "Xlong": "-2.00724548541814", "Ylat": "48.3568876092191", "com_code": "22263", "com_name": "Le Quiou" }, "geometry": { "type": "Point", "coordinates": [ -2.00724548541814, 48.3568876092191 ] } },
{ "type": "Feature", "properties": { "fid": 228, "id_lieu": "22274-C-001", "nom_lieu": "Parking de l'If", "Xlong": "-2.00753540694381", "Ylat": "48.3720837990995", "com_code": "22274", "com_name": "Saint-André-des-Eaux" }, "geometry": { "type": "Point", "coordinates": [ -2.00753540694381, 48.372083799099499 ] } },
{ "type": "Feature", "properties": { "fid": 229, "id_lieu": "22305-C-002", "nom_lieu": "L'Isle", "Xlong": "-2.15696398349496", "Ylat": "48.2674432323746", "com_code": "22305", "com_name": "Saint-Jouan-de-l'Isle" }, "geometry": { "type": "Point", "coordinates": [ -2.15696398349496, 48.267443232374603 ] } },
{ "type": "Feature", "properties": { "fid": 230, "id_lieu": "22308-C-001", "nom_lieu": "Place des Grandes Eves", "Xlong": "-2.04532412561966", "Ylat": "48.3524636276836", "com_code": "22308", "com_name": "Saint-Juvat" }, "geometry": { "type": "Point", "coordinates": [ -2.04532412561966, 48.352463627683598 ] } },
{ "type": "Feature", "properties": { "fid": 231, "id_lieu": "22339-C-003", "nom_lieu": "DOMBRIAND", "Xlong": "-2.04222717172548", "Ylat": "48.4812809675591", "com_code": "22339", "com_name": "Taden" }, "geometry": { "type": "Point", "coordinates": [ -2.04222717172548, 48.481280967559101 ] } },
{ "type": "Feature", "properties": { "fid": 232, "id_lieu": "22339-C-004", "nom_lieu": "LA MERELLE", "Xlong": "-2.06053693020587", "Ylat": "48.4695860339065", "com_code": "22339", "com_name": "Taden" }, "geometry": { "type": "Point", "coordinates": [ -2.06053693020587, 48.469586033906502 ] } },
{ "type": "Feature", "properties": { "fid": 233, "id_lieu": "22352-C-001", "nom_lieu": "Les Faluns", "Xlong": "-2.02521404230652", "Ylat": "48.3379180532882", "com_code": "22352", "com_name": "Tréfumel" }, "geometry": { "type": "Point", "coordinates": [ -2.02521404230652, 48.337918053288199 ] } },
{ "type": "Feature", "properties": { "fid": 234, "id_lieu": "22368-C-002", "nom_lieu": "Aire de Rance-Frémur", "Xlong": "-2.05988842858108", "Ylat": "48.5663382436583", "com_code": "22368", "com_name": "Tréméreuc" }, "geometry": { "type": "Point", "coordinates": [ -2.05988842858108, 48.566338243658301 ] } },
{ "type": "Feature", "properties": { "fid": 235, "id_lieu": "35005-C-002", "nom_lieu": "Eglise", "Xlong": "-1.30347200045056", "Ylat": "47.9276331656866", "com_code": "35005", "com_name": "Arbrissel" }, "geometry": { "type": "Point", "coordinates": [ -1.30347200045056, 47.927633165686601 ] } },
{ "type": "Feature", "properties": { "fid": 236, "id_lieu": "35012-C-003", "nom_lieu": "ZA Chateaugaillard", "Xlong": "-1.69132066632774", "Ylat": "47.8518850842921", "com_code": "35012", "com_name": "Bain-de-Bretagne" }, "geometry": { "type": "Point", "coordinates": [ -1.69132066632774, 47.8518850842921 ] } },
{ "type": "Feature", "properties": { "fid": 237, "id_lieu": "35012-C-004", "nom_lieu": "Croix Blanche", "Xlong": "-1.68010291421574", "Ylat": "47.8537137505543", "com_code": "35012", "com_name": "Bain-de-Bretagne" }, "geometry": { "type": "Point", "coordinates": [ -1.68010291421574, 47.853713750554299 ] } },
{ "type": "Feature", "properties": { "fid": 238, "id_lieu": "35013-C-002", "nom_lieu": "Les Landes", "Xlong": "-2.05742805316211", "Ylat": "47.6903561648678", "com_code": "35013", "com_name": "Bains-sur-Oust" }, "geometry": { "type": "Point", "coordinates": [ -2.05742805316211, 47.690356164867801 ] } },
{ "type": "Feature", "properties": { "fid": 239, "id_lieu": "35013-C-003", "nom_lieu": "Rue du stade", "Xlong": "-2.06984072116574", "Ylat": "47.7053057781406", "com_code": "35013", "com_name": "Bains-sur-Oust" }, "geometry": { "type": "Point", "coordinates": [ -2.06984072116574, 47.705305778140598 ] } },
{ "type": "Feature", "properties": { "fid": 240, "id_lieu": "35015-C-002", "nom_lieu": "Rue des lilas", "Xlong": "-1.18795300599971", "Ylat": "48.1669917471799", "com_code": "35015", "com_name": "Balazé" }, "geometry": { "type": "Point", "coordinates": [ -1.18795300599971, 48.1669917471799 ] } },
{ "type": "Feature", "properties": { "fid": 241, "id_lieu": "35018-C-002", "nom_lieu": "Place de l'Église", "Xlong": "-1.10586745516611", "Ylat": "48.4433415962599", "com_code": "35018", "com_name": "La Bazouge-du-Désert" }, "geometry": { "type": "Point", "coordinates": [ -1.10586745516611, 48.443341596259899 ] } },
{ "type": "Feature", "properties": { "fid": 242, "id_lieu": "35019-C-001", "nom_lieu": "Parking salle de sport", "Xlong": "-1.57217338758439", "Ylat": "48.4270692733778", "com_code": "35019", "com_name": "Bazouges-la-Pérouse" }, "geometry": { "type": "Point", "coordinates": [ -1.57217338758439, 48.427069273377803 ] } },
{ "type": "Feature", "properties": { "fid": 243, "id_lieu": "35022-C-002", "nom_lieu": "Intercommunale", "Xlong": "-1.94630004256493", "Ylat": "48.2968974918323", "com_code": "35022", "com_name": "Bécherel" }, "geometry": { "type": "Point", "coordinates": [ -1.94630004256493, 48.296897491832297 ] } },
{ "type": "Feature", "properties": { "fid": 244, "id_lieu": "35024-C-002", "nom_lieu": "La Haute Plesse", "Xlong": "-1.62705866596866", "Ylat": "48.1799018316766", "com_code": "35024", "com_name": "Betton" }, "geometry": { "type": "Point", "coordinates": [ -1.62705866596866, 48.179901831676602 ] } },
{ "type": "Feature", "properties": { "fid": 245, "id_lieu": "35031-C-002", "nom_lieu": "Centre maison neuve", "Xlong": "-1.4394966671136", "Ylat": "48.1851967525338", "com_code": "35031", "com_name": "La Bouëxière" }, "geometry": { "type": "Point", "coordinates": [ -1.4394966671136, 48.185196752533798 ] } },
{ "type": "Feature", "properties": { "fid": 246, "id_lieu": "35033-C-001", "nom_lieu": "Rond Point de Bel Air", "Xlong": "-1.674877660059", "Ylat": "47.9294120395669", "com_code": "35033", "com_name": "Bourg-des-Comptes" }, "geometry": { "type": "Point", "coordinates": [ -1.674877660059, 47.929412039566898 ] } },
{ "type": "Feature", "properties": { "fid": 247, "id_lieu": "35037-C-002", "nom_lieu": "Les 4 routes", "Xlong": "-1.87775133236815", "Ylat": "48.061167083203", "com_code": "35037", "com_name": "Bréal-sous-Montfort" }, "geometry": { "type": "Point", "coordinates": [ -1.87775133236815, 48.061167083203003 ] } },
{ "type": "Feature", "properties": { "fid": 248, "id_lieu": "35038-C-001", "nom_lieu": "Breal sous Vitré", "Xlong": "-1.06854432808248", "Ylat": "48.0992454216502", "com_code": "35038", "com_name": "Bréal-sous-Vitré" }, "geometry": { "type": "Point", "coordinates": [ -1.06854432808248, 48.099245421650203 ] } },
{ "type": "Feature", "properties": { "fid": 249, "id_lieu": "35047-C-002", "nom_lieu": "La Louvière", "Xlong": "-1.76733307426994", "Ylat": "48.0264241458626", "com_code": "35047", "com_name": "Bruz" }, "geometry": { "type": "Point", "coordinates": [ -1.76733307426994, 48.026424145862599 ] } },
{ "type": "Feature", "properties": { "fid": 250, "id_lieu": "35051-C-003", "nom_lieu": "Vaux", "Xlong": "-1.62801740990287", "Ylat": "48.1400369522069", "com_code": "35051", "com_name": "Cesson-Sévigné" }, "geometry": { "type": "Point", "coordinates": [ -1.62801740990287, 48.140036952206898 ] } },
{ "type": "Feature", "properties": { "fid": 251, "id_lieu": "35056-C-001", "nom_lieu": "Siège CC Bretagne Romantique", "Xlong": "-1.82882020296592", "Ylat": "48.3828209506634", "com_code": "35056", "com_name": "La Chapelle-aux-Filtzméens" }, "geometry": { "type": "Point", "coordinates": [ -1.82882020296592, 48.382820950663401 ] } },
{ "type": "Feature", "properties": { "fid": 252, "id_lieu": "35059-C-002", "nom_lieu": "Parking salle de sport", "Xlong": "-1.72646737711183", "Ylat": "48.1750609241553", "com_code": "35059", "com_name": "La Chapelle-des-Fougeretz" }, "geometry": { "type": "Point", "coordinates": [ -1.72646737711183, 48.175060924155297 ] } },
{ "type": "Feature", "properties": { "fid": 253, "id_lieu": "35061-C-001", "nom_lieu": "La Grenouillette", "Xlong": "-1.0916371179694", "Ylat": "48.1355245063558", "com_code": "35061", "com_name": "La Chapelle-Erbrée" }, "geometry": { "type": "Point", "coordinates": [ -1.0916371179694, 48.1355245063558 ] } },
{ "type": "Feature", "properties": { "fid": 254, "id_lieu": "35066-C-002", "nom_lieu": "Fontenay", "Xlong": "-1.69539899908647", "Ylat": "48.0431334967068", "com_code": "35066", "com_name": "Chartres-de-Bretagne" }, "geometry": { "type": "Point", "coordinates": [ -1.69539899908647, 48.043133496706801 ] } },
{ "type": "Feature", "properties": { "fid": 255, "id_lieu": "35067-C-001", "nom_lieu": "Ruisseau de l'Illet", "Xlong": "-1.560318985275", "Ylat": "48.2430930396079", "com_code": "35067", "com_name": "Chasné-sur-Illet" }, "geometry": { "type": "Point", "coordinates": [ -1.560318985275, 48.243093039607899 ] } },
{ "type": "Feature", "properties": { "fid": 256, "id_lieu": "35068-C-002", "nom_lieu": "La Goulgatière", "Xlong": "-1.41020880689733", "Ylat": "48.1044908589803", "com_code": "35068", "com_name": "Châteaubourg" }, "geometry": { "type": "Point", "coordinates": [ -1.41020880689733, 48.104490858980299 ] } },
{ "type": "Feature", "properties": { "fid": 257, "id_lieu": "35069-C-003", "nom_lieu": "Parking de l'étang 1", "Xlong": "-1.49922800136314", "Ylat": "48.0502730873843", "com_code": "35069", "com_name": "Châteaugiron" }, "geometry": { "type": "Point", "coordinates": [ -1.49922800136314, 48.050273087384298 ] } },
{ "type": "Feature", "properties": { "fid": 258, "id_lieu": "35069-C-004", "nom_lieu": "La Cigogne", "Xlong": "-1.48999599958178", "Ylat": "48.0379255014265", "com_code": "35069", "com_name": "Châteaugiron" }, "geometry": { "type": "Point", "coordinates": [ -1.48999599958178, 48.0379255014265 ] } },
{ "type": "Feature", "properties": { "fid": 259, "id_lieu": "35069-C-005", "nom_lieu": "Univer", "Xlong": "-1.51755167793159", "Ylat": "48.0426993324452", "com_code": "35069", "com_name": "Châteaugiron" }, "geometry": { "type": "Point", "coordinates": [ -1.51755167793159, 48.042699332445203 ] } },
{ "type": "Feature", "properties": { "fid": 260, "id_lieu": "35069-C-006", "nom_lieu": "Parking de l'étang 2", "Xlong": "-1.50109396776481", "Ylat": "48.049716919548", "com_code": "35069", "com_name": "Châteaugiron" }, "geometry": { "type": "Point", "coordinates": [ -1.50109396776481, 48.049716919547997 ] } },
{ "type": "Feature", "properties": { "fid": 261, "id_lieu": "35076-C-002", "nom_lieu": "Echangeur N24", "Xlong": "-1.79409072545584", "Ylat": "48.0772300087276", "com_code": "35076", "com_name": "Chavagne" }, "geometry": { "type": "Point", "coordinates": [ -1.79409072545584, 48.077230008727597 ] } },
{ "type": "Feature", "properties": { "fid": 262, "id_lieu": "35085-C-001", "nom_lieu": "L'Angevine", "Xlong": "-1.75304067563182", "Ylat": "48.4040035454711", "com_code": "35085", "com_name": "Combourg" }, "geometry": { "type": "Point", "coordinates": [ -1.75304067563182, 48.404003545471099 ] } },
{ "type": "Feature", "properties": { "fid": 263, "id_lieu": "35088-C-002", "nom_lieu": "La Lande du feu", "Xlong": "-1.56062840030398", "Ylat": "47.9773812706605", "com_code": "35088", "com_name": "Corps-Nuds" }, "geometry": { "type": "Point", "coordinates": [ -1.56062840030398, 47.977381270660501 ] } },
{ "type": "Feature", "properties": { "fid": 264, "id_lieu": "35090-C-002", "nom_lieu": "Rue Bernard Picoult", "Xlong": "-1.66636511370342", "Ylat": "47.9374553014561", "com_code": "35090", "com_name": "Crevin" }, "geometry": { "type": "Point", "coordinates": [ -1.66636511370342, 47.937455301456097 ] } },
{ "type": "Feature", "properties": { "fid": 265, "id_lieu": "35093-C-002", "nom_lieu": "Rue des Elfes", "Xlong": "-2.05993700011187", "Ylat": "48.6201650826191", "com_code": "35093", "com_name": "Dinard" }, "geometry": { "type": "Point", "coordinates": [ -2.05993700011187, 48.620165082619103 ] } },
{ "type": "Feature", "properties": { "fid": 266, "id_lieu": "35095-C-001", "nom_lieu": "DOL-DE-BRETAGNE", "Xlong": "-1.72571389997891", "Ylat": "48.5495118581635", "com_code": "35095", "com_name": "Dol-de-Bretagne" }, "geometry": { "type": "Point", "coordinates": [ -1.72571389997891, 48.549511858163498 ] } },
{ "type": "Feature", "properties": { "fid": 267, "id_lieu": "35097-C-001", "nom_lieu": "Rue des Genêts", "Xlong": "-1.23679611672537", "Ylat": "47.9981107006928", "com_code": "35097", "com_name": "Domalain" }, "geometry": { "type": "Point", "coordinates": [ -1.23679611672537, 47.998110700692799 ] } },
{ "type": "Feature", "properties": { "fid": 268, "id_lieu": "35098-C-001", "nom_lieu": "La Fossardais", "Xlong": "-1.69851723527387", "Ylat": "47.7818412442339", "com_code": "35098", "com_name": "La Dominelais" }, "geometry": { "type": "Point", "coordinates": [ -1.69851723527387, 47.781841244233902 ] } },
{ "type": "Feature", "properties": { "fid": 269, "id_lieu": "35099-C-003", "nom_lieu": "Le Giffart", "Xlong": "-1.52604110220217", "Ylat": "48.0572010897975", "com_code": "35099", "com_name": "Domloup" }, "geometry": { "type": "Point", "coordinates": [ -1.52604110220217, 48.057201089797502 ] } },
{ "type": "Feature", "properties": { "fid": 270, "id_lieu": "35101-C-001", "nom_lieu": "Salle des fêtes", "Xlong": "-1.36891988446051", "Ylat": "48.1940040578812", "com_code": "35101", "com_name": "Dourdain" }, "geometry": { "type": "Point", "coordinates": [ -1.36891988446051, 48.194004057881202 ] } },
{ "type": "Feature", "properties": { "fid": 271, "id_lieu": "35105-C-002", "nom_lieu": "La Lande", "Xlong": "-1.10814497866262", "Ylat": "48.0893385491454", "com_code": "35105", "com_name": "Erbrée" }, "geometry": { "type": "Point", "coordinates": [ -1.10814497866262, 48.089338549145403 ] } },
{ "type": "Feature", "properties": { "fid": 272, "id_lieu": "35107-C-002", "nom_lieu": "Salle de sport", "Xlong": "-1.51183166727924", "Ylat": "48.2524607506157", "com_code": "35107", "com_name": "Ercé-près-Liffré" }, "geometry": { "type": "Point", "coordinates": [ -1.51183166727924, 48.252460750615697 ] } },
{ "type": "Feature", "properties": { "fid": 273, "id_lieu": "35109-C-002", "nom_lieu": "Piquet", "Xlong": "-1.19945799515191", "Ylat": "48.0728344155929", "com_code": "35109", "com_name": "Étrelles" }, "geometry": { "type": "Point", "coordinates": [ -1.19945799515191, 48.072834415592901 ] } },
{ "type": "Feature", "properties": { "fid": 274, "id_lieu": "35116-C-001", "nom_lieu": "Rue des Frênes", "Xlong": "-1.8449654827428", "Ylat": "48.5884280171626", "com_code": "35116", "com_name": "La Fresnais" }, "geometry": { "type": "Point", "coordinates": [ -1.8449654827428, 48.588428017162599 ] } },
{ "type": "Feature", "properties": { "fid": 275, "id_lieu": "35123-C-003", "nom_lieu": "La Corbière", "Xlong": "-1.78222536809566", "Ylat": "48.0239960930731", "com_code": "35123", "com_name": "Goven" }, "geometry": { "type": "Point", "coordinates": [ -1.78222536809566, 48.023996093073102 ] } },
{ "type": "Feature", "properties": { "fid": 276, "id_lieu": "35124-C-003", "nom_lieu": "La Lizardais", "Xlong": "-1.73339499898347", "Ylat": "47.7190667511303", "com_code": "35124", "com_name": "Grand-Fougeray" }, "geometry": { "type": "Point", "coordinates": [ -1.73339499898347, 47.719066751130299 ] } },
{ "type": "Feature", "properties": { "fid": 277, "id_lieu": "35124-C-004", "nom_lieu": "Les 4 routes", "Xlong": "-1.71728666558017", "Ylat": "47.7445044169381", "com_code": "35124", "com_name": "Grand-Fougeray" }, "geometry": { "type": "Point", "coordinates": [ -1.71728666558017, 47.744504416938099 ] } },
{ "type": "Feature", "properties": { "fid": 278, "id_lieu": "35125-C-002", "nom_lieu": "Les Grands Champs", "Xlong": "-1.25017072657155", "Ylat": "47.9456116631715", "com_code": "35125", "com_name": "La Guerche-de-Bretagne" }, "geometry": { "type": "Point", "coordinates": [ -1.25017072657155, 47.945611663171498 ] } },
{ "type": "Feature", "properties": { "fid": 279, "id_lieu": "35126-C-005", "nom_lieu": "Les Terres", "Xlong": "-1.8129657980926", "Ylat": "47.9906394754271", "com_code": "35126", "com_name": "Guichen" }, "geometry": { "type": "Point", "coordinates": [ -1.8129657980926, 47.990639475427102 ] } },
{ "type": "Feature", "properties": { "fid": 280, "id_lieu": "35126-C-006", "nom_lieu": "Giratoire de la Taupinais", "Xlong": "-1.82984274075324", "Ylat": "47.9845656875714", "com_code": "35126", "com_name": "Guichen" }, "geometry": { "type": "Point", "coordinates": [ -1.82984274075324, 47.984565687571397 ] } },
{ "type": "Feature", "properties": { "fid": 281, "id_lieu": "35126-C-007", "nom_lieu": "Cimetière", "Xlong": "-1.77613135348884", "Ylat": "47.9971983437279", "com_code": "35126", "com_name": "Guichen" }, "geometry": { "type": "Point", "coordinates": [ -1.77613135348884, 47.997198343727902 ] } },
{ "type": "Feature", "properties": { "fid": 282, "id_lieu": "35126-C-008", "nom_lieu": "Les Landes", "Xlong": "-1.81115838112248", "Ylat": "47.9593295529337", "com_code": "35126", "com_name": "Guichen" }, "geometry": { "type": "Point", "coordinates": [ -1.81115838112248, 47.959329552933703 ] } },
{ "type": "Feature", "properties": { "fid": 283, "id_lieu": "35126-C-009", "nom_lieu": "La Courtinais", "Xlong": "-1.81483653236647", "Ylat": "47.9741404809188", "com_code": "35126", "com_name": "Guichen" }, "geometry": { "type": "Point", "coordinates": [ -1.81483653236647, 47.974140480918798 ] } },
{ "type": "Feature", "properties": { "fid": 284, "id_lieu": "35127-C-001", "nom_lieu": "La Courtinière", "Xlong": "-1.85380369245236", "Ylat": "47.9211544572429", "com_code": "35127", "com_name": "Guignen" }, "geometry": { "type": "Point", "coordinates": [ -1.85380369245236, 47.921154457242899 ] } },
{ "type": "Feature", "properties": { "fid": 285, "id_lieu": "35128-C-003", "nom_lieu": "La Plousière", "Xlong": "-1.7183898452883", "Ylat": "48.3109359596511", "com_code": "35128", "com_name": "Guipel" }, "geometry": { "type": "Point", "coordinates": [ -1.7183898452883, 48.310935959651097 ] } },
{ "type": "Feature", "properties": { "fid": 286, "id_lieu": "35128-C-004", "nom_lieu": "Rue de Rennes", "Xlong": "-1.72057523779305", "Ylat": "48.2943843610028", "com_code": "35128", "com_name": "Guipel" }, "geometry": { "type": "Point", "coordinates": [ -1.72057523779305, 48.294384361002798 ] } },
{ "type": "Feature", "properties": { "fid": 287, "id_lieu": "35132-C-001", "nom_lieu": "Cimetière", "Xlong": "-1.79802972162714", "Ylat": "48.6064472879447", "com_code": "35132", "com_name": "Hirel" }, "geometry": { "type": "Point", "coordinates": [ -1.79802972162714, 48.606447287944697 ] } },
{ "type": "Feature", "properties": { "fid": 288, "id_lieu": "35133-C-002", "nom_lieu": "Les 4 routes", "Xlong": "-1.99768638870184", "Ylat": "48.091902811892", "com_code": "35133", "com_name": "Iffendic" }, "geometry": { "type": "Point", "coordinates": [ -1.99768638870184, 48.091902811891998 ] } },
{ "type": "Feature", "properties": { "fid": 289, "id_lieu": "35135-C-002", "nom_lieu": "Rue du lavoir", "Xlong": "-1.9509383336427", "Ylat": "48.2499584972596", "com_code": "35135", "com_name": "Irodouër" }, "geometry": { "type": "Point", "coordinates": [ -1.9509383336427, 48.249958497259598 ] } },
{ "type": "Feature", "properties": { "fid": 290, "id_lieu": "35136-C-003", "nom_lieu": "Le Hardier", "Xlong": "-1.53536158800324", "Ylat": "47.9715840022118", "com_code": "35136", "com_name": "Janzé" }, "geometry": { "type": "Point", "coordinates": [ -1.53536158800324, 47.971584002211799 ] } },
{ "type": "Feature", "properties": { "fid": 291, "id_lieu": "35136-C-004", "nom_lieu": "L'Aubinière Janzé Nord", "Xlong": "-1.48840769717552", "Ylat": "47.967827819154", "com_code": "35136", "com_name": "Janzé" }, "geometry": { "type": "Point", "coordinates": [ -1.48840769717552, 47.967827819154003 ] } },
{ "type": "Feature", "properties": { "fid": 292, "id_lieu": "35136-C-005", "nom_lieu": "Champs-Blancs Janzé Est", "Xlong": "-1.48775895020323", "Ylat": "47.9507647822987", "com_code": "35136", "com_name": "Janzé" }, "geometry": { "type": "Point", "coordinates": [ -1.48775895020323, 47.950764782298698 ] } },
{ "type": "Feature", "properties": { "fid": 293, "id_lieu": "35138-C-001", "nom_lieu": "La Massonnais", "Xlong": "-1.17051590990296", "Ylat": "48.3681294366625", "com_code": "35138", "com_name": "Laignelet" }, "geometry": { "type": "Point", "coordinates": [ -1.17051590990296, 48.3681294366625 ] } },
{ "type": "Feature", "properties": { "fid": 294, "id_lieu": "35139-C-002", "nom_lieu": "Rue de la halte/Landret", "Xlong": "-1.73242788473385", "Ylat": "47.9800647551924", "com_code": "35139", "com_name": "Laillé" }, "geometry": { "type": "Point", "coordinates": [ -1.73242788473385, 47.980064755192402 ] } },
{ "type": "Feature", "properties": { "fid": 295, "id_lieu": "35139-C-003", "nom_lieu": "La lande de villiers", "Xlong": "-1.69692557108055", "Ylat": "47.97416793792", "com_code": "35139", "com_name": "Laillé" }, "geometry": { "type": "Point", "coordinates": [ -1.69692557108055, 47.974167937920001 ] } },
{ "type": "Feature", "properties": { "fid": 296, "id_lieu": "35146-C-002", "nom_lieu": "La Guiguenière", "Xlong": "-1.82256251638921", "Ylat": "48.2480027822452", "com_code": "35146", "com_name": "Langouet" }, "geometry": { "type": "Point", "coordinates": [ -1.82256251638921, 48.248002782245202 ] } },
{ "type": "Feature", "properties": { "fid": 297, "id_lieu": "35149-C-002", "nom_lieu": "Les Landes de Canut", "Xlong": "-1.86796315620161", "Ylat": "47.968165700495", "com_code": "35149", "com_name": "Lassy" }, "geometry": { "type": "Point", "coordinates": [ -1.86796315620161, 47.968165700495 ] } },
{ "type": "Feature", "properties": { "fid": 298, "id_lieu": "35150-C-001", "nom_lieu": "Villeneuve", "Xlong": "-1.23311744375032", "Ylat": "48.3512940494858", "com_code": "35150", "com_name": "Lécousse" }, "geometry": { "type": "Point", "coordinates": [ -1.23311744375032, 48.351294049485801 ] } },
{ "type": "Feature", "properties": { "fid": 299, "id_lieu": "35152-C-003", "nom_lieu": "La Reposée", "Xlong": "-1.52641333319941", "Ylat": "48.2022667465807", "com_code": "35152", "com_name": "Liffré" }, "geometry": { "type": "Point", "coordinates": [ -1.52641333319941, 48.202266746580698 ] } },
{ "type": "Feature", "properties": { "fid": 300, "id_lieu": "35152-C-004", "nom_lieu": "La croix de la mission", "Xlong": "-1.49582366618066", "Ylat": "48.2198381691332", "com_code": "35152", "com_name": "Liffré" }, "geometry": { "type": "Point", "coordinates": [ -1.49582366618066, 48.219838169133197 ] } },
{ "type": "Feature", "properties": { "fid": 301, "id_lieu": "35155-C-001", "nom_lieu": "Echangeur de Lohéac", "Xlong": "-1.88101412766708", "Ylat": "47.8630869857101", "com_code": "35155", "com_name": "Lohéac" }, "geometry": { "type": "Point", "coordinates": [ -1.88101412766708, 47.863086985710098 ] } },
{ "type": "Feature", "properties": { "fid": 302, "id_lieu": "35162-C-004", "nom_lieu": "Place du 8 mai 45", "Xlong": "-1.12147015171582", "Ylat": "48.4800711301505", "com_code": "35162", "com_name": "Louvigné-du-Désert" }, "geometry": { "type": "Point", "coordinates": [ -1.12147015171582, 48.480071130150499 ] } },
{ "type": "Feature", "properties": { "fid": 303, "id_lieu": "35167-C-001", "nom_lieu": "Echangeur Sud", "Xlong": "-1.32166233409256", "Ylat": "47.8201144600246", "com_code": "35167", "com_name": "Martigné-Ferchaud" }, "geometry": { "type": "Point", "coordinates": [ -1.32166233409256, 47.820114460024598 ] } },
{ "type": "Feature", "properties": { "fid": 304, "id_lieu": "35167-C-002", "nom_lieu": "Saint-Morand", "Xlong": "-1.27719355160516", "Ylat": "47.7995094491553", "com_code": "35167", "com_name": "Martigné-Ferchaud" }, "geometry": { "type": "Point", "coordinates": [ -1.27719355160516, 47.799509449155302 ] } },
{ "type": "Feature", "properties": { "fid": 305, "id_lieu": "35168-C-002", "nom_lieu": "Bellevue", "Xlong": "-1.9911113350743", "Ylat": "47.9085381690682", "com_code": "35168", "com_name": "Val d'Anast" }, "geometry": { "type": "Point", "coordinates": [ -1.9911113350743, 47.908538169068201 ] } },
{ "type": "Feature", "properties": { "fid": 306, "id_lieu": "35169-C-001", "nom_lieu": "Maxent", "Xlong": "-2.03042301192006", "Ylat": "47.9823578974396", "com_code": "35169", "com_name": "Maxent" }, "geometry": { "type": "Point", "coordinates": [ -2.03042301192006, 47.982357897439599 ] } },
{ "type": "Feature", "properties": { "fid": 307, "id_lieu": "35173-C-003", "nom_lieu": "Salle polyvalente", "Xlong": "-1.69770433916455", "Ylat": "48.2196439130764", "com_code": "35173", "com_name": "Melesse" }, "geometry": { "type": "Point", "coordinates": [ -1.69770433916455, 48.219643913076403 ] } },
{ "type": "Feature", "properties": { "fid": 308, "id_lieu": "35173-C-004", "nom_lieu": "Cimetière", "Xlong": "-1.69747500054249", "Ylat": "48.213218163956", "com_code": "35173", "com_name": "Melesse" }, "geometry": { "type": "Point", "coordinates": [ -1.69747500054249, 48.213218163956 ] } },
{ "type": "Feature", "properties": { "fid": 309, "id_lieu": "35174-C-001", "nom_lieu": "Parking de la Rue Rouviel", "Xlong": "-1.18793889504592", "Ylat": "48.4884238023017", "com_code": "35174", "com_name": "Mellé" }, "geometry": { "type": "Point", "coordinates": [ -1.18793889504592, 48.488423802301703 ] } },
{ "type": "Feature", "properties": { "fid": 310, "id_lieu": "35176-C-002", "nom_lieu": "Z.I Courbouton", "Xlong": "-1.90697156369629", "Ylat": "47.8361577552141", "com_code": "35176", "com_name": "Guipry-Messac" }, "geometry": { "type": "Point", "coordinates": [ -1.90697156369629, 47.836157755214103 ] } },
{ "type": "Feature", "properties": { "fid": 311, "id_lieu": "35179-C-001", "nom_lieu": "La Costardais", "Xlong": "-1.91460933166711", "Ylat": "48.5312607537301", "com_code": "35179", "com_name": "Miniac-Morvan" }, "geometry": { "type": "Point", "coordinates": [ -1.91460933166711, 48.531260753730102 ] } },
{ "type": "Feature", "properties": { "fid": 312, "id_lieu": "35184-C-002", "nom_lieu": "Rue de Dinan", "Xlong": "-2.04743866675572", "Ylat": "48.2052820828051", "com_code": "35184", "com_name": "Montauban-de-Bretagne" }, "geometry": { "type": "Point", "coordinates": [ -2.04743866675572, 48.205282082805098 ] } },
{ "type": "Feature", "properties": { "fid": 313, "id_lieu": "35192-C-001", "nom_lieu": "MONTREUIL DES LANDES", "Xlong": "-1.22416046819579", "Ylat": "48.2477201779127", "com_code": "35192", "com_name": "Montreuil-des-Landes" }, "geometry": { "type": "Point", "coordinates": [ -1.22416046819579, 48.247720177912697 ] } },
{ "type": "Feature", "properties": { "fid": 314, "id_lieu": "35197-C-002", "nom_lieu": "Les Vergers", "Xlong": "-1.62444947139616", "Ylat": "48.2095991129775", "com_code": "35197", "com_name": "Mouazé" }, "geometry": { "type": "Point", "coordinates": [ -1.62444947139616, 48.2095991129775 ] } },
{ "type": "Feature", "properties": { "fid": 315, "id_lieu": "35198-C-001", "nom_lieu": "Parking de la Mairie", "Xlong": "-1.37190399623665", "Ylat": "48.0019845301957", "com_code": "35198", "com_name": "Moulins" }, "geometry": { "type": "Point", "coordinates": [ -1.37190399623665, 48.001984530195699 ] } },
{ "type": "Feature", "properties": { "fid": 316, "id_lieu": "35206-C-002", "nom_lieu": "Rue Lavoisier", "Xlong": "-1.68343790083127", "Ylat": "48.0390009762016", "com_code": "35206", "com_name": "Noyal-Châtillon-sur-Seiche" }, "geometry": { "type": "Point", "coordinates": [ -1.68343790083127, 48.039000976201599 ] } },
{ "type": "Feature", "properties": { "fid": 317, "id_lieu": "35207-C-002", "nom_lieu": "Espace Nominoë", "Xlong": "-1.52818191449501", "Ylat": "48.1110706956896", "com_code": "35207", "com_name": "Noyal-sur-Vilaine" }, "geometry": { "type": "Point", "coordinates": [ -1.52818191449501, 48.111070695689598 ] } },
{ "type": "Feature", "properties": { "fid": 318, "id_lieu": "35210-C-004", "nom_lieu": "Cimetière", "Xlong": "-1.7696086669414", "Ylat": "48.1481784986479", "com_code": "35210", "com_name": "Pacé" }, "geometry": { "type": "Point", "coordinates": [ -1.7696086669414, 48.148178498647901 ] } },
{ "type": "Feature", "properties": { "fid": 319, "id_lieu": "35210-C-005", "nom_lieu": "Les Sorinais", "Xlong": "-1.77217967770879", "Ylat": "48.1353727221876", "com_code": "35210", "com_name": "Pacé" }, "geometry": { "type": "Point", "coordinates": [ -1.77217967770879, 48.135372722187597 ] } },
{ "type": "Feature", "properties": { "fid": 320, "id_lieu": "35211-C-002", "nom_lieu": "Rue des Forges", "Xlong": "-2.16960717226744", "Ylat": "48.0169593833885", "com_code": "35211", "com_name": "Paimpont" }, "geometry": { "type": "Point", "coordinates": [ -2.16960717226744, 48.016959383388503 ] } },
{ "type": "Feature", "properties": { "fid": 321, "id_lieu": "35219-C-002", "nom_lieu": "La Secouette", "Xlong": "-1.92760078462441", "Ylat": "47.7817320725771", "com_code": "35219", "com_name": "Pipriac" }, "geometry": { "type": "Point", "coordinates": [ -1.92760078462441, 47.7817320725771 ] } },
{ "type": "Feature", "properties": { "fid": 322, "id_lieu": "35219-C-003", "nom_lieu": "Le Fouteau", "Xlong": "-1.91846850286215", "Ylat": "47.8163692467306", "com_code": "35219", "com_name": "Pipriac" }, "geometry": { "type": "Point", "coordinates": [ -1.91846850286215, 47.816369246730602 ] } },
{ "type": "Feature", "properties": { "fid": 323, "id_lieu": "35220-C-002", "nom_lieu": "Le ballon", "Xlong": "-1.39939148093098", "Ylat": "48.0236678586756", "com_code": "35220", "com_name": "Piré-Chancé" }, "geometry": { "type": "Point", "coordinates": [ -1.39939148093098, 48.023667858675601 ] } },
{ "type": "Feature", "properties": { "fid": 324, "id_lieu": "35223-C-003", "nom_lieu": "Aire multimodale de Plélan-le-Grand", "Xlong": "-2.089132793124", "Ylat": "48.0065066650909", "com_code": "35223", "com_name": "Plélan-le-Grand" }, "geometry": { "type": "Point", "coordinates": [ -2.089132793124, 48.006506665090903 ] } },
{ "type": "Feature", "properties": { "fid": 325, "id_lieu": "35223-C-004", "nom_lieu": "Tregu", "Xlong": "-2.08493329878114", "Ylat": "48.0036080784291", "com_code": "35223", "com_name": "Plélan-le-Grand" }, "geometry": { "type": "Point", "coordinates": [ -2.08493329878114, 48.003608078429103 ] } },
{ "type": "Feature", "properties": { "fid": 326, "id_lieu": "35226-C-002", "nom_lieu": "Pleugueneuc", "Xlong": "-1.90637866673174", "Ylat": "48.406461084601", "com_code": "35226", "com_name": "Pleugueneuc" }, "geometry": { "type": "Point", "coordinates": [ -1.90637866673174, 48.406461084600998 ] } },
{ "type": "Feature", "properties": { "fid": 327, "id_lieu": "35227-C-002", "nom_lieu": "Le Plessix blanc", "Xlong": "-1.92140337176171", "Ylat": "48.174925033869", "com_code": "35227", "com_name": "Pleumeleuc" }, "geometry": { "type": "Point", "coordinates": [ -1.92140337176171, 48.174925033869002 ] } },
{ "type": "Feature", "properties": { "fid": 328, "id_lieu": "35229-C-001", "nom_lieu": "La Massais", "Xlong": "-1.22735794174372", "Ylat": "48.0959211355256", "com_code": "35229", "com_name": "Pocé-les-Bois" }, "geometry": { "type": "Point", "coordinates": [ -1.22735794174372, 48.0959211355256 ] } },
{ "type": "Feature", "properties": { "fid": 329, "id_lieu": "35231-C-002", "nom_lieu": "POLIGNE", "Xlong": "-1.68709046317441", "Ylat": "47.8890792131391", "com_code": "35231", "com_name": "Poligné" }, "geometry": { "type": "Point", "coordinates": [ -1.68709046317441, 47.889079213139098 ] } },
{ "type": "Feature", "properties": { "fid": 330, "id_lieu": "35234-C-002", "nom_lieu": "Rue de Saint-Brieuc", "Xlong": "-2.14361754196861", "Ylat": "48.2508596049886", "com_code": "35234", "com_name": "Quédillac" }, "geometry": { "type": "Point", "coordinates": [ -2.14361754196861, 48.250859604988598 ] } },
{ "type": "Feature", "properties": { "fid": 331, "id_lieu": "35235-C-001", "nom_lieu": "Paimbaudière", "Xlong": "-1.25275514259802", "Ylat": "47.9230106721949", "com_code": "35235", "com_name": "Rannée" }, "geometry": { "type": "Point", "coordinates": [ -1.25275514259802, 47.923010672194899 ] } },
{ "type": "Feature", "properties": { "fid": 332, "id_lieu": "35236-C-001", "nom_lieu": "Point de dépose Surcouf Maillardais", "Xlong": "-2.08772631487871", "Ylat": "47.6486636652055", "com_code": "35236", "com_name": "Redon" }, "geometry": { "type": "Point", "coordinates": [ -2.08772631487871, 47.648663665205497 ] } },
{ "type": "Feature", "properties": { "fid": 333, "id_lieu": "35236-C-002", "nom_lieu": "Point Stop", "Xlong": "-2.09981583277041", "Ylat": "47.663149718757", "com_code": "35236", "com_name": "Redon" }, "geometry": { "type": "Point", "coordinates": [ -2.09981583277041, 47.663149718756998 ] } },
{ "type": "Feature", "properties": { "fid": 334, "id_lieu": "35238-C-002", "nom_lieu": "La Brandais", "Xlong": "-1.62572337303651", "Ylat": "48.1542888495786", "com_code": "35238", "com_name": "Rennes" }, "geometry": { "type": "Point", "coordinates": [ -1.62572337303651, 48.154288849578599 ] } },